[
  {
    "place": "Gorges du Verdon",
    "text": "In France, this hidden gem in Provence is a limestone canyon known as the Gorges du Verdon, featuring emerald waters, sheer cliffs, and panoramic views.",
    "link": "https://www.facebook.com/reel/2208236490004402/",
    "lat": 43.7441,
    "lng": 6.3621
  },
  {
    "place": "Bonifacio Citadel",
    "text": "In France, this hidden gem in Corsica is a medieval fortress known as the Bonifacio Citadel, featuring white limestone cliffs, ancient stone houses, and golden sunset views.",
    "link": "https://www.facebook.com/reel/1272022778401485/",
    "lat": 41.3882,
    "lng": 9.1594
  },
  {
    "place": "Talloires",
    "text": "In France, this hidden gem in Auvergne-Rhône-Alpes is a picturesque alpine bay known as Talloires, featuring turquoise waters, historic abbey ruins, and sunset views over Ruphy Castle.",
    "link": "https://www.facebook.com/reel/1591485831966816/",
    "lat": 45.839,
    "lng": 6.2183
  },
  {
    "place": "Mont Aiguille",
    "text": "In France, this hidden gem in Auvergne-Rhone-Alpes is a limestone mesa known as Mont Aiguille, featuring vertical cliffs, a flat summit meadow, and alpine wildflowers.",
    "link": "https://www.facebook.com/reel/1601417890933312/",
    "lat": 44.8277,
    "lng": 5.5164
  },
  {
    "place": "Turenne Castle Hill",
    "text": "In France, this hidden gem in Nouvelle-Aquitaine is a medieval hilltop fortress known as Turenne Castle Hill, featuring ancient limestone towers, vibrant hanging gardens, and 360-degree panoramic views.",
    "link": "https://www.facebook.com/reel/945019581853418/",
    "lat": 45.0607,
    "lng": 1.5756
  },
  {
    "place": "Cascade de la Vis",
    "text": "In France, this hidden gem in Occitania is an 18th-century artificial waterfall known as Cascade de la Vis, featuring emerald swimming pools, mossy limestone ridges, and crystal-clear turquoise waters.",
    "link": "https://www.facebook.com/reel/1699823691192473/",
    "lat": 43.9183,
    "lng": 3.5967
  },
  {
    "place": "Cap Canaille",
    "text": "In France, this hidden gem in Provence is a massive headland known as Cap Canaille, featuring red ochre limestone, vertical cliff faces, and panoramic Mediterranean views.",
    "link": "https://www.facebook.com/reel/946084677813596/",
    "lat": 43.2071,
    "lng": 5.514
  },
  {
    "place": "Rocamadour",
    "text": "In France, this hidden gem in Occitanie is a medieval pilgrimage site known as Rocamadour, featuring vertical limestone cliffs, tiered golden houses, and the deep Alzou Canyon.",
    "link": "https://www.facebook.com/reel/1689894625789784/",
    "lat": 44.7984,
    "lng": 1.6185
  },
  {
    "place": "Lac Blanc",
    "text": "In France, this hidden gem in Haute-Savoie is a glacial lake known as Lac Blanc, featuring crystal-clear water, jagged granite peaks, and an iconic reflection of the Mont Blanc massif.",
    "link": "https://www.facebook.com/reel/2105061973625828/",
    "lat": 45.9765,
    "lng": 6.9204
  },
  {
    "place": "Puy de Dôme",
    "text": "In France, this hidden gem in Auvergne is a dormant lava dome known as Puy de Dôme, featuring 360-degree views, ancient Roman ruins, and emerald volcanic peaks.",
    "link": "https://www.facebook.com/reel/1952589675390105/",
    "lat": 45.7733,
    "lng": 2.9651
  },
  {
    "place": "Calanque de Figuerolles",
    "text": "In France, this hidden gem in Provence is a puddingstone cove known as Calanque de Figuerolles, featuring ochre cliffs, turquoise waters, and the iconic Rocher du Capucin.",
    "link": "https://www.facebook.com/reel/900773012984813/",
    "lat": 43.1485,
    "lng": 5.7832
  },
  {
    "place": "Château de Peyrepertuse",
    "text": "In France, this hidden gem in Occitanie is a medieval fortress known as the Château de Peyrepertuse, featuring limestone cliffs, ruined ramparts, and panoramic views.",
    "link": "https://www.facebook.com/reel/1740635363766075/",
    "lat": 42.8684,
    "lng": 2.5374
  },
  {
    "place": "Cascade du Ray-Pic",
    "text": "In France, this hidden gem in Ardèche is a volcanic natural site known as Cascade du Ray-Pic, featuring hexagonal basalt columns, a sixty-meter double waterfall, and lush beech forests.",
    "link": "https://www.facebook.com/reel/26357426183921901/",
    "lat": 44.65,
    "lng": 4.24
  },
  {
    "place": "Pointe du Raz",
    "text": "In France, this hidden gem in Brittany is a rugged granite promontory known as Pointe du Raz, featuring 70-meter cliffs, the historic La Vieille lighthouse, and dramatic sunset views.",
    "link": "https://www.facebook.com/reel/1317491780224876/",
    "lat": 48.0371,
    "lng": -4.7349
  },
  {
    "place": "Ségur-le-Château",
    "text": "In France, this hidden gem in Corrèze is a medieval riverside village known as Ségur-le-Château, featuring a horseshoe river meander, 12th-century castle ruins, and historic timber-framed houses.",
    "link": "https://www.facebook.com/reel/912198801808580/",
    "lat": 45.3444,
    "lng": 1.535
  },
  {
    "place": "Lac de Serre-Ponçon",
    "text": "In France, this hidden gem in the Hautes-Alpes is a massive alpine reservoir featuring turquoise waters, the Saint-Michel chapel, and jagged mountain peaks known as Lac de Serre-Ponçon.",
    "link": "https://www.facebook.com/reel/1741155146851801/",
    "lat": 44.528,
    "lng": 6.345
  },
  {
    "place": "Gorges du Fier Walkway",
    "text": "In France, this hidden gem in Haute-Savoie is a spectacular river-carved canyon known as the Gorges du Fier Walkway, featuring suspended footbridges, giant potholes, and sheer limestone cliffs.",
    "link": "https://www.facebook.com/reel/834633529692881/",
    "lat": 45.8842,
    "lng": 6.1073
  },
  {
    "place": "La Garde-Guérin Ridge",
    "text": "In France, this hidden gem in Occitanie is a fortified medieval plateau known as La Garde-Guérin Ridge, featuring ancient ruins, limestone cliffs, and views of Chassezac Canyon.",
    "link": "https://www.facebook.com/reel/26477303181925719/",
    "lat": 44.4667,
    "lng": 3.85
  },
  {
    "place": "Lac de Capitello",
    "text": "In France, this hidden gem in Corsica is a glacial basin known as Lac de Capitello, featuring sheer granite walls, deep sapphire waters, and jagged mountain peaks.",
    "link": "https://www.facebook.com/reel/1628174061668883/",
    "lat": 42.17,
    "lng": 9.15
  },
  {
    "place": "Mont Ventoux Ridge Path",
    "text": "In France, this hidden gem in Provence is a barren limestone massif known as the Mont Ventoux Ridge Path, featuring white scree slopes, a lunar-like summit, and panoramic 360-degree views.",
    "link": "https://www.facebook.com/reel/4431925057076599/",
    "lat": 44.174,
    "lng": 5.2784
  },
  {
    "place": "Calanque de Niolon",
    "text": "In France, this hidden gem in the Côte Bleue is a picturesque limestone calanque known as Calanque de Niolon, featuring a tiny fishing port, rugged cliffs, and golden sunset views.",
    "link": "https://www.facebook.com/reel/1936686163879746/",
    "lat": 43.3467,
    "lng": 5.245
  },
  {
    "place": "Château de Quéribus",
    "text": "In France, this hidden gem in Occitanie is a vertiginous Cathar fortress known as Château de Quéribus, featuring rugged limestone cliffs, a polygonal donjon, and panoramic Pyrenees views.",
    "link": "https://www.facebook.com/reel/1702893751123606/",
    "lat": 42.8206,
    "lng": 2.652
  },
  {
    "place": "Lac de Chalain",
    "text": "In France, this hidden gem in the Jura is a glacial lake known as Lac de Chalain, featuring turquoise waters, steep limestone cliffs, and prehistoric pile-dwelling sites.",
    "link": "https://www.facebook.com/reel/2324698614602752/",
    "lat": 46.655,
    "lng": 5.8033
  },
  {
    "place": "Aiguilles de Bavella",
    "text": "In France, this hidden gem in Corsica is a granite mountain range known as the Aiguilles de Bavella, featuring jagged red spires, twisted pine forests, and dramatic alpine vistas.",
    "link": "https://www.facebook.com/reel/1544074197423106/",
    "lat": 41.7754,
    "lng": 9.2015
  },
  {
    "place": "Autoire Cliff Houses",
    "text": "In France, this hidden gem in Occitania is a medieval cliffside fortress known as the Autoire Cliff Houses, featuring vertical limestone walls, ancient stone masonry, and dramatic valley views.",
    "link": "https://www.facebook.com/reel/1506833914308962/",
    "lat": 44.858,
    "lng": 1.751
  },
  {
    "place": "Cascade de la Pisserotte",
    "text": "In France, this hidden gem in the Chartreuse is a 76-meter single drop waterfall known as Cascade de la Pisserotte, featuring a massive limestone wall, misty spray, and lush forest.",
    "link": "https://www.facebook.com/reel/978045361421700/",
    "lat": 45.32,
    "lng": 5.78
  },
  {
    "place": "Cap Taillat",
    "text": "In France, this hidden gem in the French Riviera is a preserved sandy isthmus known as Cap Taillat, featuring turquoise waters, wild pine forests, and breathtaking 360-degree coastal views.",
    "link": "https://www.facebook.com/reel/866132416446749/",
    "lat": 43.1658,
    "lng": 6.6458
  },
  {
    "place": "Carcassonne Rampart View",
    "text": "In France, this hidden gem in Occitania is a medieval fortified walkway known as the Carcassonne Rampart View, featuring double concentric walls, 52 massive towers, and panoramic views of the Pyrenees.",
    "link": "https://www.facebook.com/reel/989594587070094/",
    "lat": 43.2077,
    "lng": 2.3647
  },
  {
    "place": "Lac de Tignes",
    "text": "In France, this hidden gem in the Savoie is a high-altitude natural lake known as Lac de Tignes, featuring glacial waters, frozen winter activities, and stunning Alpine views.",
    "link": "https://www.facebook.com/reel/950864337531017/",
    "lat": 45.4667,
    "lng": 6.9067
  },
  {
    "place": "Puy de Pariou",
    "text": "In France, this hidden gem in Auvergne is a dormant volcanic cone known as Puy de Pariou, featuring a perfect circular crater, wooden staircases, and panoramic views of the Chaîne des Puys.",
    "link": "https://www.facebook.com/reel/977041051645566/",
    "lat": 45.78,
    "lng": 2.95
  },
  {
    "place": "Calanque de Morgiou Cliffs",
    "text": "In France, this hidden gem in Provence is a dramatic limestone inlet known as the Calanque de Morgiou Cliffs, featuring turquoise waters, a historic fishing port, and prehistoric cave art.",
    "link": "https://www.facebook.com/reel/1799418594348776/",
    "lat": 43.2097,
    "lng": 5.4343
  },
  {
    "place": "Najac Castle",
    "text": "In France, this hidden gem in Occitanie is a medieval royal fortress known as Najac Castle, featuring a 40-meter-high keep, record-breaking arrow slits, and panoramic river views.",
    "link": "https://www.facebook.com/reel/2010041143208508/",
    "lat": 44.2306,
    "lng": 1.9745
  },
  {
    "place": "Cascade de Glandieu",
    "text": "In France, this hidden gem in the Bugey region is a 60-meter double waterfall known as Cascade de Glandieu, featuring moss-covered rocks, crystal-clear basins, and misty spray.",
    "link": "https://www.facebook.com/reel/970091605469346/",
    "lat": 45.8067,
    "lng": 5.555
  },
  {
    "place": "Falaises d'Étretat",
    "text": "In France, this hidden gem in Normandy is a spectacular chalk formation known as Falaises d'Étretat, featuring towering white arches, the iconic Hollow Needle, and vibrant sunset horizons.",
    "link": "https://www.facebook.com/reel/984513900808888/",
    "lat": 49.708,
    "lng": 0.204
  },
  {
    "place": "Beynac-et-Cazenac River View",
    "text": "In France, this hidden gem in the Dordogne is a medieval cliffside village known as Beynac-et-Cazenac River View, featuring a towering 12th-century fortress, traditional wooden gabarres, and golden limestone houses.",
    "link": "https://www.facebook.com/reel/4722058628021492/",
    "lat": 44.8362,
    "lng": 1.1519
  },
  {
    "place": "Lac du Lauzet",
    "text": "In France, this hidden gem in Provence is a glacial lake known as Lac du Lauzet, featuring emerald waters, reflected mountain peaks, and shaded willow banks.",
    "link": "https://www.facebook.com/reel/1269488308008033/",
    "lat": 44.39,
    "lng": 6.51
  },
  {
    "place": "Gorges de Kakuetta",
    "text": "In France, this hidden gem in the Basque Country is a spectacular canyon known as Gorges de Kakuetta, featuring lush tropical vegetation, a 20-meter waterfall, and mysterious caves.",
    "link": "https://www.facebook.com/reel/26658770853760011/",
    "lat": 43.0667,
    "lng": -0.98
  },
  {
    "place": "Roussillon Ochre Cliffs",
    "text": "In France, this hidden gem in the Luberon is a former ochre quarry known as the Roussillon Ochre Cliffs, featuring vibrant red sands, towering fairy chimneys, and scenic pine-lined paths.",
    "link": "https://www.facebook.com/reel/1608326363551512/",
    "lat": 43.9,
    "lng": 5.2967
  },
  {
    "place": "Lac de Narlay",
    "text": "In France, this hidden gem in the Jura Mountains is a glacial lake known as Lac de Narlay, featuring deep black waters, limestone cliffs, and a scenic circular trail.",
    "link": "https://www.facebook.com/reel/2112658322857786/",
    "lat": 46.6167,
    "lng": 5.8833
  },
  {
    "place": "Dent de Crolles",
    "text": "In France, this hidden gem in the Chartreuse Mountains is a karstic limestone peak known as Dent de Crolles, featuring a massive cave system, technical hiking trails, and panoramic Alpine views.",
    "link": "https://www.facebook.com/reel/1421277192655168/",
    "lat": 45.35,
    "lng": 5.88
  },
  {
    "place": "Calanque de Sugiton Belvédère",
    "text": "In France, this hidden gem in Provence is a high-altitude lookout known as the Calanque de Sugiton Belvédère, featuring panoramic Mediterranean views, an orientation table, and perspectives of the Torpilleur rock.",
    "link": "https://www.facebook.com/reel/834825572551043/",
    "lat": 43.2075,
    "lng": 5.45
  },
  {
    "place": "Polignac Fortress",
    "text": "In France, this hidden gem in Auvergne-Rhône-Alpes is a medieval fortress on a volcanic hill known as Polignac Fortress, featuring a 32-meter keep, 800 meters of ramparts, and a 360-degree panorama.",
    "link": "https://www.facebook.com/reel/1600704661225941/",
    "lat": 45.0467,
    "lng": 3.8767
  },
  {
    "place": "Lac d'Aumar",
    "text": "In France, this hidden gem in the Hautes-Pyrenees is a glacial lake known as Lac d'Aumar, featuring crystal-clear turquoise waters, surrounding ancient hook pines, and dramatic views of the Pic de Neouvielle.",
    "link": "https://www.facebook.com/reel/955523194006498/",
    "lat": 42.85,
    "lng": 0.12
  },
  {
    "place": "Gorges de la Truyère",
    "text": "In France, this hidden gem in the Massif Central is a wild canyon known as the Gorges de la Truyère, featuring vertiginous cliffs, medieval castles, and massive hydroelectric dams.",
    "link": "https://www.facebook.com/reel/1716587589710269/",
    "lat": 44.9167,
    "lng": 2.9667
  },
  {
    "place": "Saint-Cirq-Lapopie Cliff Path",
    "text": "In France, this hidden gem in Occitania is an ancient towpath known as the Saint-Cirq-Lapopie Cliff Path, featuring limestone excavations, riverside views, and contemporary rock sculptures.",
    "link": "https://www.facebook.com/reel/1723399082403007/",
    "lat": 44.4667,
    "lng": 1.67
  },
  {
    "place": "Cascade de Sillans",
    "text": "In France, this hidden gem in Provence is a stunning 42-meter waterfall known as Cascade de Sillans, featuring a turquoise pool, lush mossy cliffs, and scenic forest trails.",
    "link": "https://www.facebook.com/reel/1691502208686784/",
    "lat": 43.56,
    "lng": 6.16
  },
  {
    "place": "Cap Fréhel",
    "text": "In France, this hidden gem in Brittany is a pink sandstone headland known as Cap Fréhel, featuring sheer 70-meter cliffs, a historic lighthouse, and vast blooming moorlands.",
    "link": "https://www.facebook.com/reel/1365061105430589/",
    "lat": 48.685,
    "lng": -2.31
  },
  {
    "place": "Château de Castelnaud",
    "text": "In France, this hidden gem in the Dordogne is a medieval fortress known as the Château de Castelnaud, featuring panoramic valley views, a medieval warfare museum, and life-size siege engines.",
    "link": "https://www.facebook.com/reel/1273977384677976/",
    "lat": 44.8153,
    "lng": 1.1484
  },
  {
    "place": "Lac de Bious-Artigues",
    "text": "In France, this hidden gem in the Ossau Valley is a mountain reservoir known as Lac de Bious-Artigues, featuring crystal-clear reflections, surrounding alpine peaks, and scenic hiking trails.",
    "link": "https://www.facebook.com/reel/927499056705433/",
    "lat": 42.8867,
    "lng": -0.415
  },
  {
    "place": "Montagne Sainte-Victoire",
    "text": "In France, this hidden gem in Provence is a limestone mountain ridge known as Montagne Sainte-Victoire, featuring jagged crags, panoramic views, and inspiration for Paul Cezanne.",
    "link": "https://www.facebook.com/reel/956518866849249/",
    "lat": 43.5357,
    "lng": 5.6022
  },
  {
    "place": "Minerve Canyon View",
    "text": "In France, this hidden gem in Occitanie is a spectacular limestone gorge known as Minerve Canyon View, featuring natural stone bridges, dramatic cliffs, and prehistoric caves.",
    "link": "https://www.facebook.com/reel/729379280166360/",
    "lat": 43.37,
    "lng": 2.75
  },
  {
    "place": "Cascade du Hérisson Grand Saut",
    "text": "In France, this hidden gem in the Jura is a limestone waterfall known as Cascade du Hérisson Grand Saut, featuring a sixty-meter drop, a rocky amphitheater, and lush forest surroundings.",
    "link": "https://www.facebook.com/reel/1208401054490460/",
    "lat": 46.64,
    "lng": 5.79
  },
  {
    "place": "Pointe de Pen-Hir",
    "text": "In France, this hidden gem in Brittany is a spectacular promontory known as Pointe de Pen-Hir, featuring 70-meter-high cliffs, offshore rock stacks, and a historic war memorial.",
    "link": "https://www.facebook.com/reel/804748638886551/",
    "lat": 48.22,
    "lng": -4.59
  },
  {
    "place": "Domme Belvédère",
    "text": "In France, this hidden gem in the Dordogne is a panoramic viewpoint known as the Domme Belvédère, featuring cliffside walks, sweeping river views, and a historic bastide setting.",
    "link": "https://www.facebook.com/reel/1642759676969049/",
    "lat": 44.8005,
    "lng": 1.2065
  },
  {
    "place": "Lac de Longemer",
    "text": "In France, this hidden gem in the Vosges is a natural glacial lake known as Lac de Longemer, featuring a historic lakeside chapel, crystal-clear waters, and forested mountain slopes.",
    "link": "https://www.facebook.com/reel/933121299326013/",
    "lat": 48.03,
    "lng": 6.96
  },
  {
    "place": "Gorges de l'Ubaye",
    "text": "In France, this hidden gem in Provence-Alpes-Côte d'Azur is a dramatic glacial canyon known as Gorges de l'Ubaye, featuring turquoise waters, narrow limestone walls, and adrenaline-pumping rapids.",
    "link": "https://www.facebook.com/reel/1475972363975334/",
    "lat": 44.38,
    "lng": 6.65
  },
  {
    "place": "Chateau de Beynac Cliff View",
    "text": "In France, this hidden gem in the Dordogne is a medieval fortress known as the Chateau de Beynac Cliff View, featuring limestone cliffs, river panoramas, and historical ramparts.",
    "link": "https://www.facebook.com/reel/1689545545804007/",
    "lat": 44.8362,
    "lng": 1.1519
  },
  {
    "place": "Lac de Guéry",
    "text": "In France, this hidden gem in Auvergne is a volcanic mountain lake known as Lac de Guéry, featuring high-altitude vistas, seasonal ice fishing, and a nearby waterfall.",
    "link": "https://www.facebook.com/reel/1442630187343134/",
    "lat": 45.6333,
    "lng": 2.8633
  },
  {
    "place": "Orgues d'Ille-sur-Têt",
    "text": "In France, this hidden gem in Occitanie is a geological site known as Orgues d'Ille-sur-Têt, featuring towering fairy chimneys, sculpted sand cliffs, and golden sunset hues.",
    "link": "https://www.facebook.com/reel/1542622190666545/",
    "lat": 42.6683,
    "lng": 2.62
  },
  {
    "place": "Calanque de la Redonne",
    "text": "In France, this hidden gem in Provence-Alpes-Côte d'Azur is a picturesque limestone inlet known as Calanque de la Redonne, featuring a quaint fishing harbor, a towering railway viaduct, and secluded pebble beaches.",
    "link": "https://www.facebook.com/reel/1233150695683788/",
    "lat": 43.345,
    "lng": 5.21
  },
  {
    "place": "Conques Abbey",
    "text": "In France, this hidden gem in Occitania is a medieval sanctuary known as Conques Abbey, featuring a Romanesque abbey church, golden reliquaries, and a famous 12th-century tympanum.",
    "link": "https://www.facebook.com/reel/1488111962965247/",
    "lat": 44.5978,
    "lng": 2.3953
  },
  {
    "place": "Cascade du Voile de la Mariée",
    "text": "In France, this hidden gem in Corsica is a stunning 70m waterfall known as Cascade du Voile de la Mariée, featuring elegant water bounces, lush greenery, and a romantic legend.",
    "link": "https://www.facebook.com/reel/1694085968244199/",
    "lat": 41.84,
    "lng": 8.88
  },
  {
    "place": "Falaises de Dieppe",
    "text": "In France, this hidden gem in Normandy is a stretch of dramatic chalk cliffs known as the Falaises de Dieppe, featuring towering white faces, panoramic sea views, and historic clifftop paths.",
    "link": "https://www.facebook.com/reel/2446388905832954/",
    "lat": 49.92,
    "lng": 1.08
  },
  {
    "place": "La Roque-Gageac River View",
    "text": "In France, this hidden gem in the Dordogne is a picturesque riverside village known as La Roque-Gageac River View, featuring golden limestone cliffs, exotic tropical gardens, and traditional flat-bottomed gabares.",
    "link": "https://www.facebook.com/reel/930184883089892/",
    "lat": 44.8268,
    "lng": 1.1836
  },
  {
    "place": "Roland's Breach",
    "text": "In France, this hidden gem in the Occitanie region is a natural rock opening known as Roland's Breach, featuring a deep cleft, border views, and legendary history.",
    "link": "https://www.facebook.com/reel/1578474399905133/",
    "lat": 42.67,
    "lng": -0.03
  },
  {
    "place": "Èze Exotic Garden Cliffs",
    "text": "In France, this hidden gem in the French Riviera is a botanical site known as the Èze Exotic Garden Cliffs, featuring rare succulents, panoramic Mediterranean views, and elegant stone sculptures.",
    "link": "https://www.facebook.com/reel/1286611070233101/",
    "lat": 43.7272,
    "lng": 7.3609
  },
  {
    "place": "Lac du Lauzet (Southern Alps)",
    "text": "In France, this hidden gem in the Southern Alps is a panoramic lakeside lookout featuring turquoise water views, surrounding mountain peaks, and interpretive orientation tables.",
    "link": "https://www.facebook.com/reel/1514904570051207/",
    "lat": 44.39,
    "lng": 6.51
  },
  {
    "place": "Gorges du Tarn (Aveyron)",
    "text": "In France, this hidden gem in Aveyron is a spectacular limestone canyon featuring vertiginous cliffs, picturesque perched villages, and clear emerald waters.",
    "link": "https://www.facebook.com/reel/955273733565632/",
    "lat": 44.21,
    "lng": 3.01
  },
  {
    "place": "Calanque de l'Ours (Provence)",
    "text": "In France, this hidden gem in Provence is a wild limestone inlet featuring a secluded pebble beach, rustic fishing huts, and turquoise waters accessible only by foot or boat.",
    "link": "https://www.facebook.com/reel/948749614235369/",
    "lat": 43.21,
    "lng": 5.5
  },
  {
    "place": "Rocamadour Sanctuaries (Occitanie)",
    "text": "In France, this hidden gem in Occitanie is a vertical monastic complex featuring seven ancient chapels, a 216-step pilgrimage staircase, and a miraculous 12th-century Black Madonna.",
    "link": "https://www.facebook.com/reel/1493746719077966/",
    "lat": 44.8,
    "lng": 1.62
  },
  {
    "place": "Cascade du Nideck (Alsace)",
    "text": "In France, this hidden gem in Alsace is a dramatic 25-meter waterfall featuring volcanic rock cliffs, medieval castle ruins, and legendary tales of giants.",
    "link": "https://www.facebook.com/reel/1513992410444093/",
    "lat": 48.57,
    "lng": 7.26
  },
  {
    "place": "Massif de l'Estérel (Provence)",
    "text": "In France, this hidden gem in Provence is a volcanic coastal headland featuring dramatic red rhyolite cliffs, rare blue esterellite rocks, and a historic naval semaphore.",
    "link": "https://www.facebook.com/reel/1666170151494266/",
    "lat": 43.44,
    "lng": 6.88
  },
  {
    "place": "Île-de-Bréhat (Brittany)",
    "text": "In France, this hidden gem in Brittany is a medieval fishing village featuring granite stone houses, narrow winding ruettes, and a historic 13th-century church.",
    "link": "https://www.facebook.com/reel/911299118478450/",
    "lat": 48.84,
    "lng": -3
  },
  {
    "place": "Lac des Plagnes (Haute-Savoie)",
    "text": "In France, this hidden gem in Haute-Savoie is a pristine mountain lake featuring panoramic Mont Blanc views, rugged limestone peaks, and sightings of protected ibex.",
    "link": "https://www.facebook.com/reel/930694166603506/",
    "lat": 45.88,
    "lng": 6.7
  },
  {
    "place": "Gorges de la Rhue (Auvergne)",
    "text": "In France, this hidden gem in Auvergne is a volcanic river canyon featuring basaltic columns, wild rapids, and perched medieval villages.",
    "link": "https://www.facebook.com/reel/4341994896082637/",
    "lat": 45.45,
    "lng": 2.72
  },
  {
    "place": "Lion de Roccapina (Corsica)",
    "text": "In France, this hidden gem in Corsica is a solitary limestone stack featuring a cylindrical base, sculpted wave erosion, and proximity to vertiginous white cliffs.",
    "link": "https://www.facebook.com/reel/1252187523775980/",
    "lat": 41.51,
    "lng": 8.87
  },
  {
    "place": "Lac de Paladru (Auvergne-Rhône-Alpes)",
    "text": "In France, this hidden gem in Auvergne-Rhône-Alpes is a turquoise glacial lake featuring a chalky bottom, prehistoric archaeological sites, and vibrant emerald waters.",
    "link": "https://www.facebook.com/reel/2064277220847710/",
    "lat": 45.47,
    "lng": 5.53
  },
  {
    "place": "Cirque de Saint-Même (Chartreuse)",
    "text": "In France, this hidden gem in the Chartreuse Mountains is a natural limestone amphitheater featuring 500-meter vertical cliffs, four spectacular waterfalls, and lush alpine meadows.",
    "link": "https://www.facebook.com/reel/26155042250857012/",
    "lat": 45.3,
    "lng": 5.89
  },
  {
    "place": "Calanque de Devenson (Provence)",
    "text": "In France, this hidden gem in Provence is a secluded limestone cove featuring a small pebble beach, steep surrounding cliffs, and a shaded seaside cave.",
    "link": "https://www.facebook.com/reel/963131689486316/",
    "lat": 43.21,
    "lng": 5.48
  },
  {
    "place": "Châteaux de Lastours (Occitanie)",
    "text": "In France, this hidden gem in Occitanie is a complex of four medieval fortresses featuring perched ruins, a strategic rocky ridge, and panoramic mountain views.",
    "link": "https://www.facebook.com/reel/949198490830790/",
    "lat": 43.39,
    "lng": 2.42
  },
  {
    "place": "Lac de Cap de Long (Pyrenees)",
    "text": "In France, this hidden gem in the Pyrenees is a stunning mountain reservoir featuring crystal-clear waters, surrounding wooded slopes, and iconic views of a majestic volcanic peak.",
    "link": "https://www.facebook.com/reel/1652213409132172/",
    "lat": 42.85,
    "lng": 0.15
  },
  {
    "place": "Mont Ventoux North Face (Provence)",
    "text": "In France, this hidden gem in Provence is a massive limestone peak featuring a barren lunar landscape, high-altitude alpine flora, and panoramic 360-degree views.",
    "link": "https://www.facebook.com/reel/1426098088639794/",
    "lat": 44.17,
    "lng": 5.28
  },
  {
    "place": "Collonges-la-Rouge (Corrèze)",
    "text": "In France, this hidden gem in Corrèze is a medieval riverside village featuring a ruined clifftop fortress, half-timbered houses, and ancient stone bridges.",
    "link": "https://www.facebook.com/reel/1115258404984692/",
    "lat": 45.07,
    "lng": 1.66
  },
  {
    "place": "Cascade de Seythenex (Savoie)",
    "text": "In France, this hidden gem in Savoie is a stunning 60-meter waterfall featuring carved limestone basins, lush forest trails, and a historic ruined hydroelectric plant.",
    "link": "https://www.facebook.com/reel/1988771815393327/",
    "lat": 45.71,
    "lng": 6.34
  },
  {
    "place": "Pointe de Pen-Hir (Brittany)",
    "text": "In France, this hidden gem in Brittany is a dramatic coastal formation featuring the region's highest cliffs, historic WWII escape routes, and a unique ancient wood-pile harbor.",
    "link": "https://www.facebook.com/reel/1415634860312416/",
    "lat": 48.22,
    "lng": -4.59
  },
  {
    "place": "Château de Montségur (Occitanie)",
    "text": "In France, this hidden gem in Occitanie is a medieval mountain fortress featuring a zigzagging defensive staircase, crenelated ramparts, and a haunted tower.",
    "link": "https://www.facebook.com/reel/26454371497530340/",
    "lat": 42.87,
    "lng": 1.83
  },
  {
    "place": "Lac de Montriond (Haute-Savoie)",
    "text": "In France, this hidden gem in Haute-Savoie is a landslide-dammed alpine lake featuring emerald green waters, towering limestone cliffs, and a scenic perimeter discovery trail.",
    "link": "https://www.facebook.com/reel/772459152365234/",
    "lat": 46.2,
    "lng": 6.75
  },
  {
    "place": "Gorges du Tarn Canyon (Occitanie)",
    "text": "In France, this hidden gem in Occitanie is a spectacular limestone canyon featuring vertical cliffs, emerald-green waters, and ancient water mills.",
    "link": "https://www.facebook.com/reel/918072830865247/",
    "lat": 44.21,
    "lng": 3.06
  },
  {
    "place": "Lac de Melo",
    "text": "In France, this hidden gem in Corsica is a circular glacial basin known as Lac de Melo, featuring emerald green waters, jagged granite peaks, and lush alpine pastures.",
    "link": "https://www.facebook.com/reel/4305591139695083/",
    "lat": 42.2833,
    "lng": 9.1333
  },
  {
    "place": "Cirque de Lescun",
    "text": "In France, this hidden gem in the Pyrénées-Atlantiques is a glacial amphitheater known as the Cirque de Lescun, featuring jagged limestone peaks, emerald-green meadows, and ancient stone barns.",
    "link": "https://www.facebook.com/reel/1282012377172931/",
    "lat": 42.9333,
    "lng": -0.65
  },
  {
    "place": "Èze Bord de Mer Cliffs",
    "text": "In France, this hidden gem in Provence is a coastal limestone precipice known as Èze Bord de Mer Cliffs, featuring sheer vertical faces, sparkling azure waters, and the rugged Nietzsche Path.",
    "link": "https://www.facebook.com/reel/944021701614680/",
    "lat": 43.7272,
    "lng": 7.3609
  },
  {
    "place": "Cascade de la Vis",
    "text": "In France, this hidden gem in Occitanie is a semicircular waterfall known as Cascade de la Vis, featuring tiered limestone rocks, deep emerald pools, and lush riverside foliage.",
    "link": "https://www.facebook.com/reel/971402872082141/",
    "lat": 43.9183,
    "lng": 3.5967
  },
  {
    "place": "Gorges du Fier",
    "text": "In France, this hidden gem in Haute-Savoie is a spectacular river canyon known as Gorges du Fier, featuring suspended footbridges, towering limestone walls, and eroded giant's kettles.",
    "link": "https://www.facebook.com/reel/1643044123389337/",
    "lat": 45.8842,
    "lng": 6.1073
  },
  {
    "place": "Najac",
    "text": "In France, this hidden gem in Occitania is a fortified medieval village known as Najac, featuring a royal fortress, narrow ridge-top streets, and panoramic river views.",
    "link": "https://www.facebook.com/reel/1274370474822569/",
    "lat": 44.2306,
    "lng": 1.9745
  },
  {
    "place": "Lac de Serre-Ponçon",
    "text": "In France, this hidden gem in the Hautes-Alpes is a massive artificial lake known as Lac de Serre-Ponçon, featuring neon turquoise waters, surrounding alpine peaks, and a picturesque island chapel.",
    "link": "https://www.facebook.com/reel/932354886006037/",
    "lat": 44.528,
    "lng": 6.345
  },
  {
    "place": "Chaos du Gouët",
    "text": "In France, this hidden gem in Brittany is a riverbed of massive granite boulders known as Chaos du Gouët, featuring moss-covered rocks, rushing white water, and a lush forest canopy.",
    "link": "https://www.facebook.com/reel/1925545314722873/",
    "lat": 48.4,
    "lng": -2.85
  },
  {
    "place": "Saint-Antonin-Noble-Val",
    "text": "In France, this hidden gem in Occitania is a medieval town known as Saint-Antonin-Noble-Val, featuring narrow cobblestone streets, the 12th-century Maison Romane, and dramatic limestone cliffs.",
    "link": "https://www.facebook.com/reel/26193982063603511/",
    "lat": 44.1536,
    "lng": 1.7536
  },
  {
    "place": "Gorges de l'Hérault",
    "text": "In France, this hidden gem in Occitanie is a steep limestone canyon known as the Gorges de l'Hérault, featuring emerald waters, ancient stone bridges, and white cliffs.",
    "link": "https://www.facebook.com/reel/1419699899227774/",
    "lat": 43.75,
    "lng": 3.6167
  },
  {
    "place": "Piana Village",
    "text": "In France, this hidden gem in Corsica is a medieval clifftop village known as Piana Village, featuring white stone houses, crimson granite cliffs, and turquoise gulf views.",
    "link": "https://www.facebook.com/reel/1671715320522148/",
    "lat": 42.245,
    "lng": 8.6483
  },
  {
    "place": "Cap Blanc-Nez",
    "text": "In France, this hidden gem on the Opal Coast is a massive chalk headland known as Cap Blanc-Nez, featuring vertical ivory cliffs, panoramic channel views, and a historic memorial obelisk.",
    "link": "https://www.facebook.com/reel/1608530323738324/",
    "lat": 50.9192,
    "lng": 1.7192
  },
  {
    "place": "Turenne",
    "text": "In France, this hidden gem in Nouvelle-Aquitaine is a medieval hilltop village known as Turenne, featuring honey-colored stone houses, the 13th-century César Tower, and steep cobblestone streets.",
    "link": "https://www.facebook.com/reel/26785319287770824/",
    "lat": 45.0607,
    "lng": 1.5756
  },
  {
    "place": "Lac de Roselend",
    "text": "In France, this hidden gem in Savoie is a stunning alpine reservoir known as Lac de Roselend, featuring turquoise waters, a historic stone chapel, and panoramic mountain views.",
    "link": "https://www.facebook.com/reel/1629745844729467/",
    "lat": 45.7667,
    "lng": 6.7333
  },
  {
    "place": "Orgues de Camplong",
    "text": "In France, this hidden gem in the Pyrénées-Atlantiques is a massive limestone wall known as the Orgues de Camplong, featuring vertical grey-white cliffs, geometric rock pillars, and sweeping alpine views.",
    "link": "https://www.facebook.com/reel/4261423090853000/",
    "lat": 43.085,
    "lng": -0.68
  },
  {
    "place": "Calanque de Port-Miou",
    "text": "In France, this hidden gem in Provence is a sinuous limestone fjord known as Calanque de Port-Miou, featuring turquoise waters, white sailboats, and rugged stone quarries.",
    "link": "https://www.facebook.com/reel/931713022641376/",
    "lat": 43.21,
    "lng": 5.52
  },
  {
    "place": "Castelnou",
    "text": "In France, this hidden gem in Occitanie is a fortified medieval village known as Castelnou, featuring a 10th-century castle, winding cobblestone streets, and panoramic views of Mount Canigou.",
    "link": "https://www.facebook.com/reel/1620305899119474/",
    "lat": 42.6167,
    "lng": 2.6
  },
  {
    "place": "Cascade de Gavarnie",
    "text": "In France, this hidden gem in the Hautes-Pyrénées is a massive tiered waterfall known as Cascade de Gavarnie, featuring a 422-meter drop, silver water ribbons, and jagged 3,000-meter peaks.",
    "link": "https://www.facebook.com/reel/1445767387037141/",
    "lat": 42.735,
    "lng": -0.0133
  },
  {
    "place": "Yvoire",
    "text": "In France, this hidden gem in Auvergne-Rhône-Alpes is a fortified medieval village known as Yvoire, featuring a 14th-century castle, floral-lined cobblestone streets, and stunning Lake Geneva views.",
    "link": "https://www.facebook.com/reel/1682169322943689/",
    "lat": 46.3694,
    "lng": 6.3233
  },
  {
    "place": "Gorges de la Bourne",
    "text": "In France, this hidden gem in Auvergne-Rhone-Alpes is a limestone canyon known as Gorges de la Bourne, featuring 300-meter-high cliffs, a turquoise river, and a historic balcony road.",
    "link": "https://www.facebook.com/reel/1242281194761093/",
    "lat": 45.1,
    "lng": 5.5
  },
  {
    "place": "Bonifacio Upper Citadel",
    "text": "In France, this hidden gem in Corsica is a medieval stone fortress known as the Bonifacio Upper Citadel, featuring sheer white cliffs, ancient ochre walls, and sapphire sea views.",
    "link": "https://www.facebook.com/reel/1802254103783629/",
    "lat": 41.3882,
    "lng": 9.1594
  },
  {
    "place": "Calanque de Morgiou",
    "text": "In France, this hidden gem in Provence is a deep limestone inlet known as Calanque de Morgiou, featuring a turquoise surge, a rustic fishing port, and 200-meter-high white walls.",
    "link": "https://www.facebook.com/reel/1455252259329741/",
    "lat": 43.2097,
    "lng": 5.4343
  },
  {
    "place": "Calanque de Sormiou",
    "text": "In France, this hidden gem in Provence is a coastal limestone fjord known as Calanque de Sormiou, featuring turquoise waters, a white-sand beach, and massive pale cliffs.",
    "link": "https://www.facebook.com/reel/1978082299788341/",
    "lat": 43.2042,
    "lng": 5.4183
  },
  {
    "place": "Lac de Capitellu",
    "text": "In France, this hidden gem in Corsica is a deep glacial lake known as Lac de Capitellu, featuring sheer granite walls, towering 2,230-meter peaks, and profound sapphire waters.",
    "link": "https://www.facebook.com/reel/2010194999842056/",
    "lat": 42.17,
    "lng": 9.15
  },
  {
    "place": "Dinan Old Town",
    "text": "In France, this hidden gem in Brittany is a medieval walled town known as Dinan Old Town, featuring half-timbered houses, 13th-century ramparts, and steep cobblestone streets.",
    "link": "https://www.facebook.com/reel/781243561722110/",
    "lat": 48.4533,
    "lng": -2.05
  },
  {
    "place": "Rance Valley (Dinan View)",
    "text": "In France, this hidden gem in Brittany is a scenic river valley known as Rance Valley (Dinan View), featuring a winding slate-blue river, a massive granite viaduct, and a medieval stone port.",
    "link": "https://www.facebook.com/reel/1227198679580755/",
    "lat": 48.4533,
    "lng": -2.02
  },
  {
    "place": "Château de Haut-Kœnigsbourg",
    "text": "In France, this hidden gem in Alsace is a restored medieval fortress known as the Château de Haut-Kœnigsbourg, featuring red sandstone walls, a towering keep, and panoramic mountain views.",
    "link": "https://www.facebook.com/reel/1291637772840859/",
    "lat": 48.2481,
    "lng": 7.3406
  },
  {
    "place": "Camaret-sur-Mer (Pointe de Pen-Hir)",
    "text": "In France, this hidden gem in Brittany is a series of sandstone cliffs known as Camaret-sur-Mer (Pointe de Pen-Hir), featuring 70-meter jagged precipices, the emerald-green Iroise Sea, and massive Tas de Pois rock stacks.",
    "link": "https://www.facebook.com/reel/1409974640607730/",
    "lat": 48.22,
    "lng": -4.59
  },
  {
    "place": "Ars-en-Ré",
    "text": "In France, this hidden gem in Nouvelle-Aquitaine is a charming coastal village known as Ars-en-Ré, featuring a black-and-white bell tower, shimmering salt marshes, and white-washed cottages.",
    "link": "https://www.facebook.com/reel/809956551466099/",
    "lat": 46.2083,
    "lng": -1.515
  },
  {
    "place": "Abbaye du Thoronet",
    "text": "In France, this hidden gem in Provence is a 12th-century Cistercian abbey known as Abbaye du Thoronet, featuring stark limestone walls, Romanesque arches, and remarkable acoustics.",
    "link": "https://www.facebook.com/reel/896169016529490/",
    "lat": 43.4617,
    "lng": 6.3033
  },
  {
    "place": "Vallée des Merveilles",
    "text": "In France, this hidden gem in the Alpes-Maritimes is a prehistoric archaeological site known as Vallée des Merveilles, featuring 40,000 ancient petroglyphs, rugged glacial landscapes, and the towering Mount Bégo.",
    "link": "https://www.facebook.com/reel/892241960293554/",
    "lat": 44.07,
    "lng": 7.43
  },
  {
    "place": "Chamonix Mer de Glace",
    "text": "In France, this hidden gem in the Alps is a massive glacier known as Chamonix Mer de Glace, featuring fractured ice, deep crevasses, and jagged granite spires.",
    "link": "https://www.facebook.com/reel/854838914240425/",
    "lat": 45.9283,
    "lng": 6.9206
  },
  {
    "place": "Arêches-Beaufort",
    "text": "In France, this hidden gem in Savoie is an authentic alpine village known as Arêches-Beaufort, featuring traditional wooden chalets, a stone-steepled church, and panoramic Mont Blanc views.",
    "link": "https://www.facebook.com/reel/931474469393467/",
    "lat": 45.6883,
    "lng": 6.6383
  },
  {
    "place": "Cascade de la Billaude",
    "text": "In France, this hidden gem in the Jura is a twin-drop waterfall known as Cascade de la Billaude, featuring 28-meter successive leaps, a deep limestone amphitheater, and vibrant green ferns.",
    "link": "https://www.facebook.com/reel/1443728793946997/",
    "lat": 46.6133,
    "lng": 5.755
  },
  {
    "place": "Lac Pavin",
    "text": "In France, this hidden gem in Auvergne is a circular volcanic crater known as Lac Pavin, featuring ink-blue water, dense beech forests, and massive basalt cliffs.",
    "link": "https://www.facebook.com/reel/2522741941456806/",
    "lat": 45.4883,
    "lng": 2.8883
  },
  {
    "place": "Château de Val",
    "text": "In France, this hidden gem in Auvergne is a 15th-century fortress known as Château de Val, featuring six pepper-pot towers, slate-grey roofs, and a stunning lakeside setting.",
    "link": "https://www.facebook.com/reel/910527495276923/",
    "lat": 45.2833,
    "lng": 2.3833
  },
  {
    "place": "Calanque d'En-Vau",
    "text": "In France, this hidden gem in Provence is a limestone coastal inlet known as the Calanque d’En-Vau Cliffs, featuring turquoise waters, vertiginous white walls, and spectacular Mediterranean views.",
    "link": "https://www.facebook.com/reel/924686457091286/",
    "lat": 43.2056,
    "lng": 5.5006
  },
  {
    "place": "Lac d'Ilhéou",
    "text": "In France, this hidden gem in the Hautes-Pyrenees is a natural alpine lake known as Lac d’Ilhéou, featuring crystal-clear blue waters, a rustic mountain refuge, and surrounding jagged peaks.",
    "link": "https://www.facebook.com/reel/1707256047390187/",
    "lat": 42.9267,
    "lng": -0.16
  },
  {
    "place": "Calanque de l'Ours",
    "text": "In France, this hidden gem in Provence is a wild limestone bay featuring towering vertical cliffs, a semi-submerged marine cave, and majestic rock cathedrals.",
    "link": "https://www.facebook.com/reel/1265575741930177/",
    "lat": 43.21,
    "lng": 5.47
  },
  {
    "place": "Château de Puilaurens",
    "text": "In France, this hidden gem in Occitanie is a ruined Cathar fortress featuring a rocky promontory, concentric defensive walls, and panoramic gorge views.",
    "link": "https://www.facebook.com/reel/919148980832503/",
    "lat": 42.813,
    "lng": 2.394
  },
  {
    "place": "Lac de Calacuccia (Corsica)",
    "text": "In France, this hidden gem in Corsica is a mountain reservoir featuring turquoise waters, a massive hydroelectric dam, and panoramic views of the Prunelli Valley.",
    "link": "https://www.facebook.com/reel/1581772516256848/",
    "lat": 42.35,
    "lng": 9.01
  },
  {
    "place": "Chaîne des Puys",
    "text": "In France, this hidden gem in Auvergne is a volcanic stratovolcano ridge featuring dramatic jagged rocks, sweeping 360-degree panoramas, and alpine-style wooden staircases.",
    "link": "https://www.facebook.com/reel/1979487926271980/",
    "lat": 45.775,
    "lng": 2.96
  },
  {
    "place": "Saint-Guilhem-le-Désert",
    "text": "In France, this hidden gem in Occitania is a medieval village featuring honey-colored stone houses, a 30-meter-high waterfall, and dramatic limestone cliffs.",
    "link": "https://www.facebook.com/reel/2161651544590900/",
    "lat": 43.73,
    "lng": 3.55
  },
  {
    "place": "Cascade d'Ars (Ariège)",
    "text": "In France, this hidden gem in Ariège is a spectacular three-tiered waterfall featuring a 246-meter drop, lush beech forests, and dramatic mountain views.",
    "link": "https://www.facebook.com/reel/1284817953542390/",
    "lat": 42.79,
    "lng": 1.56
  },
  {
    "place": "Cap Couronne",
    "text": "In France, this hidden gem in the Provence-Alpes-Cote d'Azur region is a rugged limestone peninsula featuring jagged white cliffs, narrow coastal paths, and crystal-clear turquoise coves.",
    "link": "https://www.facebook.com/reel/1323210546337724/",
    "lat": 43.33,
    "lng": 5.05
  },
  {
    "place": "Château d'Aguilar",
    "text": "In France, this hidden gem in Occitanie is a preserved Cathar fortress featuring a massive square keep, a vaulted minstrels hall with musical sculptures, and panoramic hilltop views.",
    "link": "https://www.facebook.com/reel/1710928270068320/",
    "lat": 42.86,
    "lng": 2.82
  },
  {
    "place": "Lac du Mont Cenis",
    "text": "In France, this hidden gem in Savoie is a high-altitude reservoir featuring turquoise waters, surrounding 3,000-meter peaks, and historic military fortifications.",
    "link": "https://www.facebook.com/reel/685311641330299/",
    "lat": 45.25,
    "lng": 6.95
  },
  {
    "place": "Gorges de Galamus",
    "text": "In France, this hidden gem in Occitanie is a spectacular limestone canyon featuring vertiginous cliff faces, a narrow rock-carved road, and an ancient cliffside hermitage.",
    "link": "https://www.facebook.com/reel/24285706744460092/",
    "lat": 42.8,
    "lng": 2.53
  },
  {
    "place": "Calanque de Callelongue",
    "text": "In France, this hidden gem in Provence is a wild limestone inlet featuring a tiny fishing port, turquoise waters, and rugged coastal hiking trails.",
    "link": "https://www.facebook.com/reel/2767918346883070/",
    "lat": 43.21,
    "lng": 5.33
  },
  {
    "place": "Château de Peyrelade",
    "text": "In France, this hidden gem in Aveyron is a ruined medieval fortress featuring a unique natural rock keep, massive outer walls, and panoramic views of the Tarn Valley.",
    "link": "https://www.facebook.com/reel/2138618573539034/",
    "lat": 44.18,
    "lng": 2.72
  },
  {
    "place": "Lac de Nino (Corsica)",
    "text": "In France, this hidden gem in Corsica is a high-altitude glacial lake featuring unique emerald pozzines, free-roaming wild horses, and panoramic mountain views.",
    "link": "https://www.facebook.com/reel/1335249888440309/",
    "lat": 42.36,
    "lng": 9.02
  },
  {
    "place": "Aiguilles Rouges",
    "text": "In France, this hidden gem in Auvergne-Rhone-Alpes is a series of dramatic granite needles featuring jagged rock spires, high-altitude ridges, and stunning views of Mont Blanc.",
    "link": "https://www.facebook.com/reel/917098801127629/",
    "lat": 45.95,
    "lng": 6.87
  },
  {
    "place": "Monpazier",
    "text": "In France, this hidden gem in Nouvelle-Aquitaine is a perfectly preserved medieval bastide featuring a grid-patterned layout, an arcaded central square, and ancient fortified gate towers.",
    "link": "https://www.facebook.com/reel/2004790120071580/",
    "lat": 44.68,
    "lng": 0.89
  },
  {
    "place": "Gorges de la Beaume (Ardèche)",
    "text": "In France, this hidden gem in the Ardèche is a spectacular volcanic waterfall featuring towering basalt columns, a double-tiered cascade, and one of Europe’s longest ancient lava flows.",
    "link": "https://www.facebook.com/reel/2490557071359704/",
    "lat": 44.72,
    "lng": 4.12
  },
  {
    "place": "Bonifacio Sea Caves",
    "text": "In France, this hidden gem in Corsica is a series of majestic limestone cliffs featuring secret marine caves, a 187-step cliffside staircase, and a 100-meter vertical drop.",
    "link": "https://www.facebook.com/reel/948839998083510/",
    "lat": 41.38,
    "lng": 9.16
  },
  {
    "place": "Château de Murol",
    "text": "In France, this hidden gem in Auvergne is a medieval fortress featuring a basalt promontory, a 14th-century keep, and panoramic volcanic views.",
    "link": "https://www.facebook.com/reel/3097246707329487/",
    "lat": 45.57,
    "lng": 2.94
  },
  {
    "place": "Lac du Mont Cenis",
    "text": "In France, this hidden gem in the Alps is a massive high-altitude lake featuring crystal-clear glacial waters, towering rocky peaks, and lush meadows home to marmots.",
    "link": "https://www.facebook.com/reel/1407540714506365/",
    "lat": 45.25,
    "lng": 6.95
  },
  {
    "place": "Gorges de Régalon",
    "text": "In France, this hidden gem in Provence is a spectacular limestone canyon featuring vertiginous white cliffs, ancient rock-hewn tunnels, and a 12th-century troglodytic chapel.",
    "link": "https://www.facebook.com/reel/928408243108191/",
    "lat": 43.75,
    "lng": 5.37
  },
  {
    "place": "Calanque de Port-Pin",
    "text": "In France, this hidden gem in Provence is a steep-walled limestone inlet featuring turquoise waters, white rocky cliffs, and a unique torpedo-shaped islet.",
    "link": "https://www.facebook.com/reel/1456081099332253/",
    "lat": 43.205,
    "lng": 5.49
  },
  {
    "place": "Cordes-sur-Ciel",
    "text": "In France, this hidden gem in Occitania is a medieval hilltop village featuring a circular market hall, a brick clock tower, and panoramic river views.",
    "link": "https://www.facebook.com/reel/1046979291834603/",
    "lat": 44.07,
    "lng": 1.96
  },
  {
    "place": "Lac de Melu (Corsica)",
    "text": "In France, this hidden gem in Corsica is a high-altitude glacial lake featuring sheer granite walls, deep blue water, and a rugged mineral landscape.",
    "link": "https://www.facebook.com/reel/874555918957448/",
    "lat": 42.2,
    "lng": 9.15
  },
  {
    "place": "Cirque de Choranche",
    "text": "In France, this hidden gem in the Vercors is a massive limestone cirque featuring towering 400-meter cliffs, rare nesting vultures, and wandering alpine ibex.",
    "link": "https://www.facebook.com/reel/1921202308505782/",
    "lat": 45.1,
    "lng": 5.39
  },
  {
    "place": "Château de Crussol",
    "text": "In France, this hidden gem in Auvergne-Rhône-Alpes is a ruined medieval fortress featuring a limestone rocky outcrop, jagged ramparts, and panoramic valley views.",
    "link": "https://www.facebook.com/reel/1416867526434382/",
    "lat": 44.93,
    "lng": 4.83
  },
  {
    "place": "Cascade de la Druise (Drôme)",
    "text": "In France, this hidden gem in Drôme is a stunning 72-meter waterfall featuring a limestone slot canyon, a turquoise lagoon, and lush forest greenery.",
    "link": "https://www.facebook.com/reel/1576233407839659/",
    "lat": 44.47,
    "lng": 5.38
  },
  {
    "place": "Gorges du Dourdou",
    "text": "In France, this hidden gem in Occitanie is a dramatic river canyon featuring limestone cliffs, winding medieval paths, and turquoise waters.",
    "link": "https://www.facebook.com/reel/1420564629300065/",
    "lat": 43.58,
    "lng": 2.42
  },
  {
    "place": "Entraygues-sur-Truyère",
    "text": "In France, this hidden gem in Occitanie is a medieval riverside village featuring a restored fortress, an ancient stone bridge, and traditional stone-tiled houses.",
    "link": "https://www.facebook.com/reel/963757586597087/",
    "lat": 44.65,
    "lng": 2.57
  },
  {
    "place": "Lac de Vassivière",
    "text": "In France, this hidden gem in Nouvelle-Aquitaine is a high-altitude reservoir featuring mirror-like turquoise waters, dramatic views of the Pic du Midi d'Ossau, and lush surrounding pine forests.",
    "link": "https://www.facebook.com/reel/1335832878369439/",
    "lat": 45.71,
    "lng": 1.97
  },
  {
    "place": "Puy de Sancy",
    "text": "In France, this hidden gem in Auvergne is an ancient pyramidal volcano featuring seven radiating glacial valleys, 360-degree panoramic views, and rare alpine flora.",
    "link": "https://www.facebook.com/reel/1423472475658805/",
    "lat": 45.52,
    "lng": 2.81
  },
  {
    "place": "Calanque de Port-Pin",
    "text": "In France, this hidden gem in Provence-Alpes-Côte d'Azur is a pristine limestone cove featuring crystal-clear turquoise waters, a rocky offshore islet, and a dramatic railway viaduct.",
    "link": "https://www.facebook.com/reel/2729743864164928/",
    "lat": 43.205,
    "lng": 5.49
  },
  {
    "place": "Rochefort-en-Terre",
    "text": "In France, this hidden gem in Brittany is a medieval village on a rocky spur featuring half-timbered houses, flower-filled balconies, and winding cobbled streets.",
    "link": "https://www.facebook.com/reel/1282988277091182/",
    "lat": 47.7,
    "lng": -2.36
  },
  {
    "place": "Lac du Salagou",
    "text": "In France, this hidden gem in Occitanie is a high-altitude mountain reservoir featuring a massive stone dam, surrounding pine forests, and stunning alpine reflections.",
    "link": "https://www.facebook.com/reel/1413628310030299/",
    "lat": 43.66,
    "lng": 3.31
  },
  {
    "place": "Gerbier de Jonc",
    "text": "In France, this hidden gem in Auvergne-Rhone-Alpes is an ancient volcanic lava dome featuring the source of the Loire River, musical phonolite rocks, and panoramic summit views.",
    "link": "https://www.facebook.com/reel/1275939664477536/",
    "lat": 44.84,
    "lng": 4.22
  },
  {
    "place": "Penne-d'Agenais",
    "text": "In France, this hidden gem in Nouvelle-Aquitaine is a fortified medieval bastide featuring a clifftop Romanesque church, narrow hollyhock-lined streets, and traditional fishing huts on stilts.",
    "link": "https://www.facebook.com/reel/2788777094794474/",
    "lat": 44.37,
    "lng": 0.94
  },
  {
    "place": "Cascade du Rouget",
    "text": "In France, this hidden gem in the Alps is a towering 100-meter waterfall featuring a thunderous single drop, glacial meltwater, and lush alpine surroundings.",
    "link": "https://www.facebook.com/reel/800373393114494/",
    "lat": 45.83,
    "lng": 6.63
  },
  {
    "place": "Gorges de l'Ardèche",
    "text": "In France, this hidden gem in the Ardèche is a dramatic granite canyon featuring rugged rock outcrops, roaring river waters, and steep limestone cliffs.",
    "link": "https://www.facebook.com/reel/1716857962823646/",
    "lat": 44.37,
    "lng": 4.38
  },
  {
    "place": "La Couvertoirade",
    "text": "In France, this hidden gem in Occitanie is a fortified Templar village featuring intact 15th-century ramparts, narrow cobblestone streets, and a historic windmill overlooking the plateau.",
    "link": "https://www.facebook.com/reel/1585071852583733/",
    "lat": 43.97,
    "lng": 3.28
  },
  {
    "place": "Calanque de Marseilleveyre",
    "text": "In France, this hidden gem in Provence is a scenic clifftop overlook featuring turquoise waters, limestone cliffs, and panoramic views.",
    "link": "https://www.facebook.com/reel/4084358635188959/",
    "lat": 43.205,
    "lng": 5.46
  },
  {
    "place": "Rocher de Roquebrune",
    "text": "In France, this hidden gem in the Var is a jagged red sandstone butte featuring three iconic summit crosses, ancient rock fissures, and sweeping 360-degree views.",
    "link": "https://www.facebook.com/reel/929851842762233/",
    "lat": 43.47,
    "lng": 6.65
  },
  {
    "place": "Calanque de Port-Miou",
    "text": "In France, this hidden gem in Provence is a narrow limestone inlet featuring sheltered turquoise waters, aromatic Aleppo pine trees, and a secluded pebble beach.",
    "link": "https://www.facebook.com/reel/1681392199684912/",
    "lat": 43.21,
    "lng": 5.52
  },
  {
    "place": "Ainhoa (Basque Country)",
    "text": "In France, this hidden gem in the Basque Country is a picturesque mountain village featuring traditional whitewashed houses, ancient prehistoric caves, and a historic cog railway.",
    "link": "https://www.facebook.com/reel/781404027989120/",
    "lat": 43.31,
    "lng": -1.49
  },
  {
    "place": "Lac d'Annecy",
    "text": "In France, this hidden gem in the French Alps is a scenic alpine lake featuring breathtaking mountain reflections, world-class climbing walls, and tranquil forest trails.",
    "link": "https://www.facebook.com/reel/970642641984330/",
    "lat": 45.85,
    "lng": 6.19
  },
  {
    "place": "Cirque de Gavarnie",
    "text": "In France, this hidden gem in Auvergne-Rhône-Alpes is a vast glacial amphitheater featuring towering limestone cliffs, thirty seasonal waterfalls, and dramatic horseshoe-shaped peaks.",
    "link": "https://www.facebook.com/reel/785474684202332/",
    "lat": 42.735,
    "lng": -0.0133
  },
  {
    "place": "Cité de Carcassonne",
    "text": "In France, this hidden gem in Occitanie is a medieval fortress featuring high stone-walled ramparts, three defensive towers, and panoramic mountain views.",
    "link": "https://www.facebook.com/reel/2674513159586083/",
    "lat": 43.2077,
    "lng": 2.3647
  },
  {
    "place": "Cascade de la Beaume (Haute-Loire)",
    "text": "In France, this hidden gem in Haute-Loire is a volcanic waterfall featuring a dramatic basaltic cliff, a powerful 27-meter drop, and a lush forest of maritime pines.",
    "link": "https://www.facebook.com/reel/984243010926925/",
    "lat": 45.05,
    "lng": 3.95
  },
  {
    "place": "Gorges du Verdon",
    "text": "In France, this hidden gem in Provence-Alpes-Côte d'Azur is a limestone gorge featuring turquoise natural pools, an ancient three-arched bridge, and ivory-colored rock strata.",
    "link": "https://www.facebook.com/reel/1494883992641030/",
    "lat": 43.7441,
    "lng": 6.3621
  },
  {
    "place": "La Roque-Gageac",
    "text": "In France, this hidden gem in Nouvelle-Aquitaine is a medieval riverside village featuring cliff-top castle ruins, prehistoric limestone carvings, and winding cobblestone streets.",
    "link": "https://www.facebook.com/reel/1613532913117838/",
    "lat": 44.8268,
    "lng": 1.1836
  },
  {
    "place": "Lac d'Allos",
    "text": "In France, this hidden gem in Provence-Alpes-Côte d'Azur is a massive natural high-altitude lake featuring turquoise glacial waters, jagged sandstone towers, and abundant alpine wildlife.",
    "link": "https://www.facebook.com/reel/4425140104425453/",
    "lat": 44.23,
    "lng": 6.72
  },
  {
    "place": "Montagne de Chabre",
    "text": "In France, this hidden gem in Auvergne-Rhone-Alpes is a massive limestone mesa featuring vertical cliffs, a flat summit meadow, and a historic mountaineering legacy.",
    "link": "https://www.facebook.com/reel/1501486444884572/",
    "lat": 44.2,
    "lng": 5.75
  },
  {
    "place": "Calanque de Cassis",
    "text": "In France, this hidden gem in Provence-Alpes-Côte d'Azur is a limestone coastal inlet featuring a quaint fishing port, crystal-clear turquoise waters, and dramatic clifftop views.",
    "link": "https://www.facebook.com/reel/1433214221621279/",
    "lat": 43.215,
    "lng": 5.535
  },
  {
    "place": "Château de Castelnaud",
    "text": "In France, this hidden gem in Dordogne is a 12th-century cliffside fortress featuring a massive Romanesque keep, panoramic river views, and ancient frescoes.",
    "link": "https://www.facebook.com/reel/908016605175710/",
    "lat": 44.8153,
    "lng": 1.1484
  },
  {
    "place": "Lac du Salagou",
    "text": "In France, this hidden gem in Occitanie is a vibrant reservoir featuring unique red ruffe rocks, deep blue waters, and dramatic volcanic remains.",
    "link": "https://www.facebook.com/reel/1456642632923836/",
    "lat": 43.66,
    "lng": 3.31
  },
  {
    "place": "Gorges de la Sioule",
    "text": "In France, this hidden gem in Auvergne is a dramatic volcanic canyon featuring winding river meanders, ancient clifftop castles, and lush forested valleys.",
    "link": "https://www.facebook.com/reel/1225157589819069/",
    "lat": 46.02,
    "lng": 3
  },
  {
    "place": "Minerve",
    "text": "In France, this hidden gem in Occitanie is a fortified medieval village featuring limestone gorges, natural rock bridges, and narrow cobblestone streets.",
    "link": "https://www.facebook.com/reel/1738872547081001/",
    "lat": 43.37,
    "lng": 2.75
  },
  {
    "place": "Cascade du Cirque du Fer-à-Cheval",
    "text": "In France, this hidden gem in Haute-Savoie is a powerful alpine waterfall featuring two dramatic tiers, a ninety-meter drop, and refreshing mountain mist.",
    "link": "https://www.facebook.com/reel/917609654593784/",
    "lat": 46.04,
    "lng": 6.69
  },
  {
    "place": "Cap Gris-Nez",
    "text": "In France, this hidden gem in Hauts-de-France is a rugged sandstone headland featuring towering grey cliffs, panoramic views of the English coast, and a historic coastal lighthouse.",
    "link": "https://www.facebook.com/reel/2007543346856111/",
    "lat": 50.87,
    "lng": 1.58
  },
  {
    "place": "Cordes-sur-Ciel",
    "text": "In France, this hidden gem in Occitanie is a fortified medieval village featuring a 12th-century square tower, a Romanesque church, and dramatic views over deep granite canyons.",
    "link": "https://www.facebook.com/reel/1305021638136568/",
    "lat": 44.07,
    "lng": 1.96
  },
  {
    "place": "Lac de Matemale",
    "text": "In France, this hidden gem in the Occitanie region is a serene artificial lake featuring towering fir forests, grazing dairy cows, and a scenic mountain plateau.",
    "link": "https://www.facebook.com/reel/2619143238482526/",
    "lat": 42.58,
    "lng": 2.12
  },
  {
    "place": "Dentelles de Montmirail",
    "text": "In France, this hidden gem in Provence is a jagged limestone mountain range featuring lace-like rock peaks, world-class vineyards, and ancient hiking trails.",
    "link": "https://www.facebook.com/reel/3433809183449797/",
    "lat": 44.17,
    "lng": 5
  },
  {
    "place": "Calanque de l'Ours",
    "text": "In France, this hidden gem in Provence-Alpes-Côte d'Azur is a secluded pebble cove featuring striking ochre cliffs, turquoise waters, and unique puddingstone formations.",
    "link": "https://www.facebook.com/reel/2070049673537493/",
    "lat": 43.21,
    "lng": 5.47
  },
  {
    "place": "Cordes-sur-Ciel",
    "text": "In France, this hidden gem in Occitanie is a medieval hilltop bastide featuring 13th-century Gothic architecture, fortified gateways, and mystical views above the clouds.",
    "link": "https://www.facebook.com/reel/1062526416940000/",
    "lat": 44.07,
    "lng": 1.96
  },
  {
    "place": "Cascade de Pissevache (Provence)",
    "text": "In France, this hidden gem in Provence is a stunning 42-meter waterfall featuring twin parallel drops, a turquoise emerald pool, and moss-covered travertine cliffs.",
    "link": "https://www.facebook.com/reel/1530008225791044/",
    "lat": 43.56,
    "lng": 6.16
  },
  {
    "place": "Cap Blanc-Nez",
    "text": "In France, this hidden gem in Hauts-de-France is a towering chalk headland featuring 134-meter cliffs, preserved World War II craters, and panoramic views across the English Channel.",
    "link": "https://www.facebook.com/reel/1211942047677967/",
    "lat": 50.9192,
    "lng": 1.7192
  },
  {
    "place": "Cascade des Tufs (Jura)",
    "text": "In France, this hidden gem in the Jura Mountains is a breathtaking tufa waterfall featuring mossy limestone terraces, crystal-clear rimstone pools, and lush surrounding vegetation.",
    "link": "https://www.facebook.com/reel/1225866036368238/",
    "lat": 46.72,
    "lng": 5.75
  },
  {
    "place": "Calanches de Piana (Corsica)",
    "text": "In France, this hidden gem in Corsica is a volcanic rock complex featuring red granite cliffs, jagged porphyry needles, and turquoise sea inlets.",
    "link": "https://www.facebook.com/reel/1241938671463347/",
    "lat": 42.245,
    "lng": 8.6483
  },
  {
    "place": "Baie de Somme",
    "text": "In France, this hidden gem in Picardy is a vast coastal estuary featuring playful seal colonies, expansive salt marshes, and diverse migratory birds.",
    "link": "https://www.facebook.com/reel/1364422049040454/",
    "lat": 50.18,
    "lng": 1.57
  },
  {
    "place": "Aiguilles de Bavella (Corsica)",
    "text": "In France, this hidden gem in Corsica is a jagged granite massif featuring needle-like peaks, ancient twisted pines, and dramatic vertical rock walls.",
    "link": "https://www.facebook.com/reel/1847870205899727/",
    "lat": 41.7754,
    "lng": 9.2015
  },
  {
    "place": "Cap d'Erquy",
    "text": "In France, this hidden gem in Brittany is a pink sandstone headland known as Cap d’Erquy, featuring towering rose-colored cliffs, wild purple heather, and shimmering emerald waters.",
    "link": "https://www.facebook.com/reel/1456358889454027/",
    "lat": 48.6267,
    "lng": -2.4617
  },
  {
    "place": "Lac d'Aiguebelette",
    "text": "In France, this hidden gem in Savoie is a natural glacial lake known as Lac d’Aiguebelette, featuring emerald-green water, two forested islands, and a tranquil atmosphere.",
    "link": "https://www.facebook.com/reel/1648302359849614/",
    "lat": 45.5467,
    "lng": 5.8017
  },
  {
    "place": "Cascade d'Autoire",
    "text": "In France, this hidden gem in the Lot is a 30-meter waterfall known as Cascade d’Autoire, featuring honey-colored limestone cliffs, a verdant U-shaped cirque, and a crystalline pool.",
    "link": "https://www.facebook.com/reel/1900257414185163/",
    "lat": 44.858,
    "lng": 1.751
  },
  {
    "place": "Falaises d'Ault",
    "text": "In France, this hidden gem in Hauts-de-France is a massive chalk escarpment known as Falaises d’Ault, featuring pearly-white walls, turquoise waters, and scenic pebble beaches.",
    "link": "https://www.facebook.com/reel/859789917104685/",
    "lat": 50.1017,
    "lng": 1.4567
  },
  {
    "place": "Lac d'Oô",
    "text": "In France, this hidden gem in the Pyrenees is a stunning glacial lake known as Lac d’Oô, featuring a 275-meter waterfall, deep indigo waters, and jagged granite peaks.",
    "link": "https://www.facebook.com/reel/837434986058239/",
    "lat": 42.75,
    "lng": 0.5
  },
  {
    "place": "Pont de l'Artuby",
    "text": "In France, this hidden gem in the Gorges du Verdon is a massive concrete bridge known as Pont de l’Artuby, featuring a single reinforced arch, a 182-meter drop, and stunning turquoise river views.",
    "link": "https://www.facebook.com/reel/2136905017087016/",
    "lat": 43.765,
    "lng": 6.37
  },
  {
    "place": "Puy de Dôme",
    "text": "In France, this hidden gem in Auvergne is a dormant lava dome featuring 360-degree views of volcanic craters, ruins of an ancient temple, and paragliders soaring through the mountain air.",
    "link": "https://www.facebook.com/reel/1744899710253463/",
    "lat": 45.7733,
    "lng": 2.9651
  },
  {
    "place": "Lac d'Allos",
    "text": "In France, this hidden gem in Alpes-de-Haute-Provence is a glacial lake known as Lac d’Allos, featuring turquoise water, jagged limestone peaks, and mirror-like alpine reflections.",
    "link": "https://www.facebook.com/reel/2012089966352868/",
    "lat": 44.23,
    "lng": 6.72
  },
  {
    "place": "Puy de Sancy / Chaîne des Puys",
    "text": "In France, this hidden gem in Auvergne is a massive dormant stratovolcano featuring 360-degree panoramic views, dramatic volcanic ridges, and the source of the Dordogne River.",
    "link": "https://www.facebook.com/reel/1667818974212135/",
    "lat": 45.52,
    "lng": 2.81
  },
  {
    "place": "Île de Batz (Brittany)",
    "text": "In France, this hidden gem in Brittany is a tranquil island featuring exotic botanical gardens, rugged granite coastlines, and a historic lighthouse overlooking the turquoise Atlantic waters.",
    "link": "https://www.facebook.com/reel/1673634140756759/",
    "lat": 48.7533,
    "lng": -3.92
  },
  {
    "place": "Île de Porquerolles",
    "text": "In France, this hidden gem in Provence-Alpes-Côte d'Azur is a crescent-shaped island featuring white sandy beaches, crystal-clear turquoise waters, and rugged southern cliffs overlooking the Mediterranean Sea.",
    "link": "https://www.facebook.com/reel/2082603655921161/",
    "lat": 43,
    "lng": 6.2
  },
  {
    "place": "Cauterets (Occitanie)",
    "text": "In France, this hidden gem in Occitanie is a historic mountain gateway featuring thunderous waterfalls, a shimmering emerald lake, and views of the highest peak in the French Pyrenees.",
    "link": "https://www.facebook.com/reel/2496191580798190/",
    "lat": 42.8883,
    "lng": -0.1067
  },
  {
    "place": "L'Aiguille Creuse (Normandy)",
    "text": "In France, this hidden gem in Normandy is a 70-meter-high limestone sea stack featuring a narrow needle-like shape, a gravity-defying flint base, and breathtaking views of the turquoise Alabaster Coast.",
    "link": "https://www.facebook.com/reel/1172775274793268/",
    "lat": 49.74,
    "lng": 0.18
  },
  {
    "place": "Orgues de Ille-sur-Têt",
    "text": "In France, this hidden gem in Occitanie is a geological wonder featuring towering sandy-ochre columns, fragile fairy chimneys, and panoramic views of the surrounding Pyrenees.",
    "link": "https://www.facebook.com/reel/1292136006307215/",
    "lat": 42.6683,
    "lng": 2.62
  },
  {
    "place": "Château de Brissac",
    "text": "In France, this hidden gem in Pays de la Loire is a medieval and Renaissance fortress featuring distinct octagonal towers, slate-roofed structures, and breathtaking views of the surrounding river valley.",
    "link": "https://www.facebook.com/reel/898121899851948/",
    "lat": 47.36,
    "lng": -0.46
  },
  {
    "place": "Arc de Moidieu",
    "text": "In France, this hidden gem in Auvergne-Rhône-Alpes is a colossal natural limestone arch featuring a 54-meter-high span, a rushing mountain river, and panoramic views of a wild, winding gorge.",
    "link": "https://www.facebook.com/reel/27253751290880963/",
    "lat": 45.55,
    "lng": 5.05
  },
  {
    "place": "Archipel des Sept-Îles",
    "text": "In France, this hidden gem in Brittany is a car-free granite archipelago featuring striking pink rock formations, a lush Mediterranean micro-climate with exotic flowers, and a historic red-stone lighthouse overlooking turquoise waters.",
    "link": "https://www.facebook.com/reel/937829535866904/",
    "lat": 48.885,
    "lng": -3.48
  },
  {
    "place": "Pointe de Pen-Men (Groix)",
    "text": "In France, this hidden gem in Brittany is a dramatic granite promontory featuring 70-meter-high cliffs, crashing Atlantic waves, and iconic offshore lighthouses overlooking a powerful maritime current.",
    "link": "https://www.facebook.com/reel/1797348731670585/",
    "lat": 47.64,
    "lng": -3.53
  },
  {
    "place": "Château de Fougères",
    "text": "In France, this hidden gem in Brittany is a massive medieval fortress featuring seven stone towers, a wide reflective moat, and a stunning backdrop of golden salt marshes and the Atlantic Ocean.",
    "link": "https://www.facebook.com/reel/1617581889141926/",
    "lat": 48.35,
    "lng": -1.2
  },
  {
    "place": "Domme (Nouvelle-Aquitaine)",
    "text": "In France, this hidden gem in Nouvelle-Aquitaine is a medieval cliffside village featuring a 12th-century fortress, golden limestone houses, and sweeping views over the meandering Dordogne River.",
    "link": "https://www.facebook.com/reel/2275016662908463/",
    "lat": 44.8005,
    "lng": 1.2065
  },
  {
    "place": "Monpazier",
    "text": "In France, this hidden gem in Nouvelle-Aquitaine is a fortified medieval bastide featuring golden stone architecture, massive 13th-century gates, and breathtaking panoramic views of the river valley.",
    "link": "https://www.facebook.com/reel/3945502199080162/",
    "lat": 44.68,
    "lng": 0.89
  },
  {
    "place": "Château de Castelnaud",
    "text": "In France, this hidden gem in Nouvelle-Aquitaine is a medieval fortress featuring a museum of ancient weaponry, life-size siege engines, and panoramic views of the river valley.",
    "link": "https://www.facebook.com/reel/912301884989366/",
    "lat": 44.8153,
    "lng": 1.1484
  },
  {
    "place": "Lac de Vouglans (Jura)",
    "text": "In France, this hidden gem in the Jura Mountains is a massive emerald-green reservoir featuring a 103-meter-high arch dam, 35 kilometers of winding turquoise water, and a submerged twelfth-century abbey.",
    "link": "https://www.facebook.com/reel/827969416971496/",
    "lat": 46.45,
    "lng": 5.77
  },
  {
    "place": "Vallée de la Combe du Lac (Jura)",
    "text": "In France, this hidden gem in the Jura Mountains is a spectacular glacial valley featuring 31 cascading waterfalls, ancient limestone ledges, and a series of dramatic plunges through a lush forest.",
    "link": "https://www.facebook.com/reel/1272525574970443/",
    "lat": 46.65,
    "lng": 5.8
  },
  {
    "place": "Château d'Azay-le-Rideau",
    "text": "In France, this hidden gem in the Loire Valley is a Renaissance masterpiece featuring elegant arches spanning a river, meticulously manicured French gardens, and a rich history of royal inhabitants.",
    "link": "https://www.facebook.com/reel/878104055227472/",
    "lat": 47.26,
    "lng": 0.47
  },
  {
    "place": "Château de Chambord",
    "text": "In France, this hidden gem in the Loire Valley is a massive Renaissance palace featuring a famous double-helix staircase, hundreds of ornate chimneys, and a vast, walled forest park.",
    "link": "https://www.facebook.com/reel/1490985692422589/",
    "lat": 47.616,
    "lng": 1.517
  },
  {
    "place": "Lac de Castillon",
    "text": "In France, this hidden gem in Provence-Alpes-Côte d'Azur is a sprawling emerald reservoir featuring a 95-meter-high dam, the world's largest sundial, and shimmering alpine-like waters ideal for kayaking.",
    "link": "https://www.facebook.com/reel/776799682155728/",
    "lat": 43.87,
    "lng": 6.55
  },
  {
    "place": "Cité de Carcassonne",
    "text": "In France, this hidden gem in Occitanie is a medieval fortress featuring monumental twin-tower gatehouses, 14th-century ramparts, and a 360-degree panorama of the surrounding river valley and distant peaks.",
    "link": "https://www.facebook.com/reel/1244112731197292/",
    "lat": 43.2077,
    "lng": 2.3647
  },
  {
    "place": "Cirque de Baume (Jura)",
    "text": "In France, this hidden gem in Auvergne-Rhône-Alpes is a limestone cirque featuring a road carved into vertical cliffs, multiple rock-hewn tunnels, and 700-meter drops overlooking a lush valley.",
    "link": "https://www.facebook.com/reel/919630363808565/",
    "lat": 46.77,
    "lng": 5.77
  },
  {
    "place": "Jardin Botanique d'Eze",
    "text": "In France, this hidden gem in Provence-Alpes-Côte d'Azur is a protected coastal botanical garden featuring global Mediterranean landscapes, historic seaside villas, and panoramic views of the turquoise sea.",
    "link": "https://www.facebook.com/reel/4248010778785963/",
    "lat": 43.7272,
    "lng": 7.3609
  },
  {
    "place": "Orgues de la Roche (Auvergne)",
    "text": "In France, this hidden gem in Auvergne is a dramatic volcanic site featuring towering basalt needles, ancient monuments perched on rocky peaks, and a historic cathedral marking the start of a legendary pilgrimage.",
    "link": "https://www.facebook.com/reel/1104350021827484/",
    "lat": 45.1,
    "lng": 3.05
  },
  {
    "place": "Aigues-Mortes (Camargue)",
    "text": "In France, this hidden gem in the Camargue is a 13th-century fortified enclosure featuring a massive stone perimeter, five monumental gates, and sweeping views of vibrant pink salt marshes.",
    "link": "https://www.facebook.com/reel/1587001039171252/",
    "lat": 43.5667,
    "lng": 4.1833
  },
  {
    "place": "Lac de Gaube (Pyrenees)",
    "text": "In France, this hidden gem in Occitanie is a crystalline glacial lake featuring emerald-green waters, a backdrop of the majestic Vignemale peak, and surrounding pine-covered slopes within a protected national park.",
    "link": "https://www.facebook.com/reel/2291534101338390/",
    "lat": 42.77,
    "lng": -0.1
  },
  {
    "place": "Gorges du Loup (Alpes-Maritimes)",
    "text": "In France, this hidden gem in the Alpes-Maritimes is a dramatic limestone canyon featuring towering cliffs, emerald-green swimming pools, and a spectacular 40-meter waterfall cascading over mossy boulders.",
    "link": "https://www.facebook.com/reel/1245169257576553/",
    "lat": 43.7,
    "lng": 6.95
  },
  {
    "place": "Pérouges",
    "text": "In France, this hidden gem in Auvergne-Rhône-Alpes is a hilltop medieval village featuring winding cobblestone alleys, ancient stone houses, and a unique 15th-century fortress-church.",
    "link": "https://www.facebook.com/reel/2203045153848529/",
    "lat": 45.9,
    "lng": 5.19
  },
  {
    "place": "Gorges du Tarn",
    "text": "In France, this hidden gem in Occitanie is a spectacular limestone canyon featuring rushing turquoise rapids, deep geological potholes, and a series of dramatic tiered waterfalls.",
    "link": "https://www.facebook.com/reel/1240983968005669/",
    "lat": 44.21,
    "lng": 3.01
  },
  {
    "place": "Pont du Gard",
    "text": "In France, this hidden gem in Occitanie is a triple-tiered Roman aqueduct featuring massive limestone arches, a towering height of 49 meters, and a pristine setting over a turquoise river.",
    "link": "https://www.facebook.com/reel/921533710235694/",
    "lat": 43.9467,
    "lng": 4.5353
  },
  {
    "place": "Saint-Guilhem-le-Désert",
    "text": "In France, this hidden gem in Occitanie is a medieval village featuring a Romanesque abbey, narrow cobblestone alleyways, and a dramatic limestone canyon with rushing turquoise waters.",
    "link": "https://www.facebook.com/reel/2371254269969036/",
    "lat": 43.73,
    "lng": 3.55
  },
  {
    "place": "Aiguilles Rouges (Haute-Savoie)",
    "text": "In France, this hidden gem in Haute-Savoie is a crystalline mountain massif featuring jagged red-tinted peaks, shimmering alpine lakes, and panoramic views of Western Europe’s highest summits.",
    "link": "https://www.facebook.com/reel/1246817206941095/",
    "lat": 45.95,
    "lng": 6.87
  },
  {
    "place": "Col de la Bonette",
    "text": "In France, this hidden gem in Provence-Alpes-Côte d'Azur is a high mountain pass featuring a barren lunar landscape, winding alpine roads, and panoramic views of the Southern Alps.",
    "link": "https://www.facebook.com/reel/2268709843658611/",
    "lat": 44.3267,
    "lng": 6.805
  },
  {
    "place": "Château de Polignac",
    "text": "In France, this hidden gem in Auvergne is a massive medieval fortress perched atop a volcanic basalt plateau featuring a soaring 32-meter keep, extensive stone ramparts, and breathtaking 360-degree panoramic views.",
    "link": "https://www.facebook.com/reel/1699466094373015/",
    "lat": 45.0467,
    "lng": 3.8767
  },
  {
    "place": "Château de Montréal-de-Sos (Ariège)",
    "text": "In France, this hidden gem in Ariège is a medieval fortress ruin featuring a high rocky spur, 13th-century limestone walls, and panoramic views of the surrounding mountains.",
    "link": "https://www.facebook.com/reel/1653422515874205/",
    "lat": 42.83,
    "lng": 1.55
  },
  {
    "place": "Lac Blanc (Vosges)",
    "text": "In France, this hidden gem in the Vosges Mountains is a glacial lake featuring crystalline white sand, an imposing rock spire crowned with a statue, and dense pine forests.",
    "link": "https://www.facebook.com/reel/804425258684241/",
    "lat": 48,
    "lng": 7.05
  },
  {
    "place": "Chaos de Montpellier-le-Vieux",
    "text": "In France, this hidden gem in Aveyron is a sprawling dolomitic blockfield featuring towering rock formations, a labyrinth of winding paths, and monumental natural sculptures.",
    "link": "https://www.facebook.com/reel/902739422529222/",
    "lat": 44.19,
    "lng": 3.18
  },
  {
    "place": "Saint-Cirq-Lapopie",
    "text": "In France, this hidden gem in Occitania is a medieval hillside village featuring narrow cobblestone streets, ancient limestone houses, and a legendary turquoise spring at the base of a deep canyon.",
    "link": "https://www.facebook.com/reel/2658029491238255/",
    "lat": 44.4667,
    "lng": 1.67
  },
  {
    "place": "Château de Couzan",
    "text": "In France, this hidden gem in Auvergne-Rhône-Alpes is a 12th-century basalt fortress featuring a massive medieval keep, high stone ramparts, and panoramic views of volcanic massifs.",
    "link": "https://www.facebook.com/reel/2135600337185545/",
    "lat": 45.78,
    "lng": 3.84
  },
  {
    "place": "Cap Canaille (Grande Tête)",
    "text": "In France, this hidden gem in Provence-Alpes-Côte d'Azur is a massive sea cliff featuring a 394-meter vertical plunge, vibrant ochre limestone strata, and sweeping views of the deep Mediterranean blue.",
    "link": "https://www.facebook.com/reel/777346278764686/",
    "lat": 43.19,
    "lng": 5.52
  },
  {
    "place": "Gorges de Daluis",
    "text": "In France, this hidden gem in Provence-Alpes-Côte d'Azur is a deep wine-red canyon featuring vertiginous schist cliffs, an iconic 80-meter-high bridge, and the rushing turquoise waters of a mountain river.",
    "link": "https://www.facebook.com/reel/1142437877932204/",
    "lat": 43.96,
    "lng": 6.83
  },
  {
    "place": "Reculée des Planches (Jura)",
    "text": "In France, this hidden gem in Bourgogne-Franche-Comté is a dramatic steephead valley featuring towering limestone cliffs, a cascading tufa waterfall, and a historic imperial abbey.",
    "link": "https://www.facebook.com/reel/3034666470075257/",
    "lat": 46.75,
    "lng": 5.72
  },
  {
    "place": "Côte de Granit Rose",
    "text": "In France, this hidden gem in Brittany is a sculpted coastline featuring massive rose-colored boulders, a historic stone lighthouse, and turquoise Atlantic waves crashing against copper-pink granite.",
    "link": "https://www.facebook.com/reel/900880772732883/",
    "lat": 48.8,
    "lng": -3.55
  },
  {
    "place": "Vallée de la Clarée",
    "text": "In France, this hidden gem in Provence-Alpes-Côte d'Azur is a preserved glacial valley featuring a winding turquoise river, golden larch forests, and dramatic waterfalls.",
    "link": "https://www.facebook.com/reel/1797934517831750/",
    "lat": 44.94,
    "lng": 6.57
  },
  {
    "place": "Èze (French Riviera)",
    "text": "In France, this hidden gem in the French Riviera is a medieval hilltop village featuring winding stone alleys, a cliffside exotic garden, and panoramic Mediterranean views.",
    "link": "https://www.facebook.com/reel/895505483121254/",
    "lat": 43.7272,
    "lng": 7.3609
  },
  {
    "place": "Lac de Sainte-Croix",
    "text": "In France, this hidden gem in Provence is a massive turquoise reservoir featuring shimmering emerald waters, towering white limestone cliffs, and lush aromatic pine forests.",
    "link": "https://www.facebook.com/reel/1174593271227709/",
    "lat": 43.76,
    "lng": 6.12
  },
  {
    "place": "Gorges de la Jonte",
    "text": "In France, this hidden gem in Occitanie is a spectacular limestone canyon featuring vertical dolomite cliffs, soaring griffon vultures, and unique balancing rock formations.",
    "link": "https://www.facebook.com/reel/1714624866588546/",
    "lat": 44.17,
    "lng": 3.2
  },
  {
    "place": "Saint-Robert (Nouvelle-Aquitaine)",
    "text": "In France, this hidden gem in Nouvelle-Aquitaine is a medieval cliffside village featuring honey-colored stone houses, an ancient troglodyte fort, and a lush exotic garden.",
    "link": "https://www.facebook.com/reel/932511846193897/",
    "lat": 45.25,
    "lng": 1.56
  },
  {
    "place": "Lac du Bourget (Savoie)",
    "text": "In France, this hidden gem in Savoie is a massive glacial lake featuring deep turquoise waters, sheer limestone cliffs, and lush green alpine slopes.",
    "link": "https://www.facebook.com/reel/1626831495137235/",
    "lat": 45.74,
    "lng": 5.85
  },
  {
    "place": "Bonifacio (Corsica)",
    "text": "In France, this hidden gem in Corsica is a dramatic limestone peninsula featuring sheer white cliffs, medieval houses overhanging the sea, and an ancient staircase carved into the vertical rock face.",
    "link": "https://www.facebook.com/reel/2099422960807904/",
    "lat": 41.3882,
    "lng": 9.1594
  },
  {
    "place": "Haute Ségrie citadel",
    "text": "In France, this hidden gem in Occitanie is a medieval mountaintop citadel featuring a jagged limestone pinnacle, ancient masonry ramparts, and breathtaking views of the distant mountains and sea.",
    "link": "https://www.facebook.com/reel/2159413088160133/",
    "lat": 43.55,
    "lng": 3
  },
  {
    "place": "Gouffre de Padirac",
    "text": "In France, this hidden gem in Occitanie is a vast subterranean limestone cavern featuring a forest of 400 stone pillars, a cathedral-sized chamber, and the world’s tallest known stalagmite.",
    "link": "https://www.facebook.com/reel/1206529648314345/",
    "lat": 44.8517,
    "lng": 1.7519
  },
  {
    "place": "Cordes-sur-Ciel",
    "text": "In France, this hidden gem in Occitania is a preserved medieval hillside village featuring narrow cobblestone streets, a massive Romanesque abbey, and ancient timber-framed houses.",
    "link": "https://www.facebook.com/reel/923207486733247/",
    "lat": 44.07,
    "lng": 1.96
  },
  {
    "place": "Cap Fréhel",
    "text": "In France, this hidden gem in Brittany is a dramatic pink sandstone headland featuring sheer seventy-meter cliffs, colorful coastal moors, and a majestic stone lighthouse.",
    "link": "https://www.facebook.com/reel/4141214409542599/",
    "lat": 48.685,
    "lng": -2.31
  },
  {
    "place": "Eguisheim (Alsace)",
    "text": "In France, this hidden gem in Alsace is a medieval fairytale town featuring colorful half-timbered houses, flower-lined canals, and winding cobbled streets.",
    "link": "https://www.facebook.com/reel/1357398439524921/",
    "lat": 47.98,
    "lng": 7.31
  },
  {
    "place": "Fontaine de Vaucluse",
    "text": "In France, this hidden gem in Provence is a massive karst spring featuring a towering limestone cliff, a deep emerald pool, and the powerful gushing waters of a subterranean river.",
    "link": "https://www.facebook.com/reel/3922577294542807/",
    "lat": 43.92,
    "lng": 5.13
  },
  {
    "place": "Cirque de Navacelles",
    "text": "In France, this hidden gem in Occitanie is a massive natural amphitheater featuring a lush green oasis, sheer limestone cliffs, and a winding river with a cascading waterfall.",
    "link": "https://www.facebook.com/reel/3297041040473764/",
    "lat": 43.87,
    "lng": 3.49
  },
  {
    "place": "Ribeauvillé (Alsace)",
    "text": "In France, this hidden gem in Alsace is a preserved medieval village featuring vibrant half-timbered houses, ancient stone ramparts, and a towering thirteenth-century defensive gate.",
    "link": "https://www.facebook.com/reel/1925352021680422/",
    "lat": 48.19,
    "lng": 7.32
  },
  {
    "place": "Calanque de Cassis",
    "text": "In France, this hidden gem in Provence is a secluded coastal inlet featuring sheer limestone cliffs, crystal-clear turquoise waters, and aromatic pine forests.",
    "link": "https://www.facebook.com/reel/1467003331511258/",
    "lat": 43.215,
    "lng": 5.535
  },
  {
    "place": "Château de Termes (Occitanie)",
    "text": "In France, this hidden gem in Occitanie is a ruined medieval fortress featuring a high limestone ridge, ancient stone ramparts, and panoramic views of the surrounding mountains.",
    "link": "https://www.facebook.com/reel/1260761319452714/",
    "lat": 43.05,
    "lng": 2.6
  },
  {
    "place": "Cirque de Troumouse",
    "text": "In France, this hidden gem in the Pyrenees is a vast glacial cirque featuring towering limestone walls, vibrant alpine meadows, and crystal-clear mountain streams.",
    "link": "https://www.facebook.com/reel/807518235701649/",
    "lat": 42.72,
    "lng": -0.07
  },
  {
    "place": "Calanques (Provence)",
    "text": "In France, this hidden gem in Provence is a series of steep limestone inlets featuring towering white cliffs, crystal-clear turquoise waters, and secluded pebble beaches.",
    "link": "https://www.facebook.com/reel/3663331133821808/",
    "lat": 43.207,
    "lng": 5.45
  },
  {
    "place": "Cité de Carcassonne",
    "text": "In France, this hidden gem in Occitanie is a medieval fortified citadel featuring fifty-two watchtowers, double stone ramparts, and narrow cobblestone streets.",
    "link": "https://www.facebook.com/reel/1440205374258872/",
    "lat": 43.2077,
    "lng": 2.3647
  },
  {
    "place": "Lac d'Annecy",
    "text": "In France, this hidden gem in Auvergne-Rhône-Alpes is a shimmering alpine bay featuring crystal-clear aquamarine waters, dramatic mountain peaks, and a historic stone abbey nestled along the shoreline.",
    "link": "https://www.facebook.com/reel/1445424917296208/",
    "lat": 45.85,
    "lng": 6.19
  },
  {
    "place": "Les Baux-de-Provence",
    "text": "In France, this hidden gem in Provence is a medieval cliffside village featuring a gold star suspended between peaks, ancient terracotta-tiled houses, and a waterfall rushing through the central square.",
    "link": "https://www.facebook.com/reel/1235413011504336/",
    "lat": 43.7444,
    "lng": 4.7953
  },
  {
    "place": "Aiguilles de Bavella (Corsica)",
    "text": "In France, this hidden gem in Corsica is a dramatic granite mountain range featuring jagged red needles, wind-twisted pine trees, and sheer vertical rock walls.",
    "link": "https://www.facebook.com/reel/814698708357815/",
    "lat": 41.7754,
    "lng": 9.2015
  },
  {
    "place": "Eguisheim",
    "text": "In France, this hidden gem in Alsace is a circular medieval village featuring vibrant half-timbered houses, concentric cobblestone streets, and flower-filled balconies overlooking historic vineyards.",
    "link": "https://www.facebook.com/reel/1049876914868273/",
    "lat": 47.98,
    "lng": 7.31
  },
  {
    "place": "Gorges de la Vis",
    "text": "In France, this hidden gem in Occitanie is a deep limestone canyon featuring sheer 500-meter cliffs, a winding turquoise river, and ancient stone hamlets nestled along the valley floor.",
    "link": "https://www.facebook.com/reel/761129393731584/",
    "lat": 43.9183,
    "lng": 3.5967
  },
  {
    "place": "Dune du Pilat",
    "text": "In France, this hidden gem in Aquitaine is a massive moving sand dune featuring towering white crests, breathtaking Atlantic panoramas, and a vast surrounding forest of emerald maritime pines.",
    "link": "https://www.facebook.com/reel/1508766917317813/",
    "lat": 44.59,
    "lng": -1.22
  },
  {
    "place": "Les Baux-de-Provence",
    "text": "In France, this hidden gem in Provence is a medieval clifftop citadel featuring a ruined castle, limestone rock formations, and sweeping views of olive groves.",
    "link": "https://www.facebook.com/reel/4204523423143798/",
    "lat": 43.7444,
    "lng": 4.7953
  },
  {
    "place": "Annecy (Auvergne-Rhône-Alpes)",
    "text": "In France, this hidden gem in Auvergne-Rhone-Alpes is a medieval alpine settlement featuring winding emerald canals, pastel-colored buildings, and a triangular 12th-century island fortress.",
    "link": "https://www.facebook.com/reel/25786197081073535/",
    "lat": 45.8992,
    "lng": 6.1294
  },
  {
    "place": "Pont d'Arc (Ardèche)",
    "text": "In France, this hidden gem in Auvergne-Rhône-Alpes is a massive limestone canyon featuring a colossal natural stone arch, an emerald winding river, and vertical 300-meter cliffs.",
    "link": "https://www.facebook.com/reel/1200170075219558/",
    "lat": 44.375,
    "lng": 4.396
  },
  {
    "place": "Lagrasse (Occitania)",
    "text": "In France, this hidden gem in Occitania is a fortified medieval village featuring steep-roofed stone houses, a clifftop Gothic church, and dramatic views of a winding emerald river.",
    "link": "https://www.facebook.com/reel/1286923200017498/",
    "lat": 43.09,
    "lng": 2.62
  },
  {
    "place": "Mont Blanc / Aiguille du Midi",
    "text": "In France, this hidden gem in Auvergne-Rhône-Alpes is a high-altitude granite peak featuring jagged spires, massive frozen glaciers, and a vertigo-inducing glass skywalk suspended over a thousand-meter drop.",
    "link": "https://www.facebook.com/reel/1458124159354413/",
    "lat": 45.8792,
    "lng": 6.9106
  },
  {
    "place": "Roussillon Ochre Cliffs",
    "text": "In France, this hidden gem in Provence is a former ochre quarry featuring vibrant crimson cliffs, golden sand formations, and lush green pine forests.",
    "link": "https://www.facebook.com/reel/934879075596433/",
    "lat": 43.9,
    "lng": 5.2967
  },
  {
    "place": "Pont d'Arc (Ardèche)",
    "text": "In France, this hidden gem in the Ardèche is a massive natural limestone arch featuring a turquoise river channel, towering gray cliffs, and proximity to prehistoric cave art.",
    "link": "https://www.facebook.com/reel/1476506357379927/",
    "lat": 44.375,
    "lng": 4.396
  },
  {
    "place": "Cirque de Gavarnie",
    "text": "In France, this hidden gem in Occitanie is a colossal glacial amphitheater featuring vertical limestone walls, a soaring 422-meter waterfall, and pristine alpine meadows.",
    "link": "https://www.facebook.com/reel/1252330962924579/",
    "lat": 42.735,
    "lng": -0.0133
  },
  {
    "place": "Gordes (Provence)",
    "text": "In France, this hidden gem in Provence is a perched medieval citadel featuring labyrinthine cobblestone streets, golden limestone houses, and panoramic views of the surrounding valley.",
    "link": "https://www.facebook.com/reel/1168465118542615/",
    "lat": 43.9108,
    "lng": 5.2011
  },
  {
    "place": "Calanques de Marseille",
    "text": "In France, this hidden gem in Provence-Alpes-Côte d'Azur is a rugged limestone massif featuring towering coastal cliffs, hidden turquoise coves, and aromatic Aleppo pines.",
    "link": "https://www.facebook.com/reel/1977455769500636/",
    "lat": 43.21,
    "lng": 5.45
  },
  {
    "place": "Rocamadour",
    "text": "In France, this hidden gem in Occitanie is a vertical medieval pilgrimage site featuring gravity-defying stone chapels, a clifftop castle, and panoramic views of a deep limestone canyon.",
    "link": "https://www.facebook.com/reel/912609541728338/",
    "lat": 44.7984,
    "lng": 1.6185
  },
  {
    "place": "Gorges du Verdon",
    "text": "In France, this hidden gem in Provence-Alpes-Côte d'Azur is a massive limestone canyon featuring a neon turquoise river, vertical seven-hundred-meter cliffs, and winding scenic roads.",
    "link": "https://www.facebook.com/reel/1246237310228217/",
    "lat": 43.7441,
    "lng": 6.3621
  },
  {
    "place": "Falaises d'Étretat",
    "text": "In France, this hidden gem in Normandy is a massive chalk complex featuring monumental natural arches, a sharp rock needle, and sheer white cliffs overlooking the emerald sea.",
    "link": "https://www.facebook.com/reel/888357607322569/",
    "lat": 49.708,
    "lng": 0.204
  },
  {
    "place": "Mont Saint-Michel",
    "text": "In France, this hidden gem in Normandy is a medieval island abbey featuring ancient granite walls, a soaring golden spire, and expansive silver mudflats.",
    "link": "https://www.facebook.com/reel/789531964208896/",
    "lat": 48.636,
    "lng": -1.511
  },
  {
    "place": "Cap Taillat (French Riviera)",
    "text": "In France, this pristine gem on the French Riviera is a wild, white-sand isthmus connecting a rocky peninsula to the mainland, offering turquoise waters and untouched coastal scrub far from the glamour of Saint-Tropez.",
    "link": "https://www.facebook.com/reel/1827297661320930/",
    "lat": 43.1658,
    "lng": 6.6458
  },
  {
    "place": "Bassin de Thau (Hérault)",
    "text": "In France, this hidden gem in the Hérault is a vast coastal lagoon where the rising sun paints the oyster beds and still waters in shades of violet and gold, backlighting the silhouettes of distant Mount Saint-Clair.",
    "link": "https://www.facebook.com/reel/26324012283919574/",
    "lat": 43.42,
    "lng": 3.6
  },
  {
    "place": "Vallée du Vallouise (Écrins)",
    "text": "In France, this wild, end-of-the-world valley in the Ecrins is a narrow glacial sanctuary of slate-roofed hamlets and thundering waterfalls, where the granite peaks of the Massif des Écrins close in with raw majesty.",
    "link": "https://www.facebook.com/reel/1231316578979775/",
    "lat": 44.83,
    "lng": 6.5
  },
  {
    "place": "Cirque du Gioberney (Hautes-Alpes)",
    "text": "In France, this hidden gem in the Hautes-Alpes is a massive limestone horseshoe famed for its world-class climbing walls and a high-altitude corniche that offers a dizzying perspective over the Durance Valley.",
    "link": "https://www.facebook.com/reel/1226976359622900/",
    "lat": 44.92,
    "lng": 6.23
  },
  {
    "place": "Lac de Serre-Ponçon",
    "text": "In France, this turquoise wonder in the Hautes-Alpes is a vast mountain reservoir where the lonely Chapel of Saint-Michel sits on a tiny island, framed by the jagged, sun-drenched peaks of the Southern Alps.",
    "link": "https://www.facebook.com/reel/1597442341503875/",
    "lat": 44.528,
    "lng": 6.345
  },
  {
    "place": "Plateau du Retord (Ain)",
    "text": "In France, this hidden gem in the Ain is a high-altitude karst landscape of undulating wildflower meadows and secret fir forests, offering a silent, windswept sanctuary for cross-country skiers and solitude seekers.",
    "link": "https://www.facebook.com/reel/1562881164993381/",
    "lat": 45.95,
    "lng": 5.75
  },
  {
    "place": "Pointe de Pen-Hir (Tas de Pois)",
    "text": "In France, this dramatic headland in Brittany features the \"Tas de Pois\" (Heaps of Peas)—three massive sandstone sea stacks emerging from the Atlantic mist beneath 70-meter cliffs draped in green gorse and violet heather.",
    "link": "https://www.facebook.com/reel/4464287517139704/",
    "lat": 48.22,
    "lng": -4.59
  },
  {
    "place": "Mont Aigoual (Cévennes)",
    "text": "In France, this granite giant is the highest point of the Cévennes, a windswept landscape of high-altitude moors, prehistoric menhirs, and the tiny springs that mark the very beginning of the Tarn River.",
    "link": "https://www.facebook.com/reel/1460589445427806/",
    "lat": 44.121,
    "lng": 3.579
  },
  {
    "place": "Vallée d'Ossau (Pyrenees)",
    "text": "In France, this \"Eden of the Pyrenees\" is a lush, pastoral Eden of slate-roofed barns and emerald meadows, serving as a tranquil mountain sanctuary where tradition thrives beneath the soaring peaks of the Balaitous massif.",
    "link": "https://www.facebook.com/reel/684494608024296/",
    "lat": 42.9,
    "lng": -0.4
  },
  {
    "place": "Lac du Bourget 'Côte Sauvage'",
    "text": "In France, this hidden gem in Savoie features the wild \"Côte Sauvage,\" where steep mountain slopes drop directly into the deepest turquoise waters, hiding secluded pebble coves and the Gothic silhouette of Hautecombe Abbey.",
    "link": "https://www.facebook.com/reel/1970443617219630/",
    "lat": 45.78,
    "lng": 5.86
  },